[{"location": "Corral, Chile", "id": "417045862", "lat": "-39.8882", "lng": "-73.42952", "Oct-15-2020": "34280"}, {"location": "Bahia De Corral", "id": "280036726", "lat": "-39.8872194314", "lng": "-73.4276738297", "Oct-15-2020": "3009"}, {"location": "Castillo San Sebastian de la Cruz, Corral", "id": "270183631", "lat": "-39.8881585181", "lng": "-73.4272064872", "Oct-15-2020": "3684"}, {"location": "Fuerte de la Bah\u00eda de Corral, Valdivia", "id": "236047387", "lat": "-39.8880299606", "lng": "-73.4268580091", "Oct-15-2020": "2745"}, {"location": "Tunel Fuerte Corral - Valdivia", "id": "623736336", "lat": "-39.8881405402", "lng": "-73.4271642517", "Oct-15-2020": "2103"}, {"location": "Isla Corral. Valdivia Chile", "id": "915917317", "lat": "-39.8874385323", "lng": "-73.427757364", "Oct-15-2020": "1057"}, {"location": "Puerto De Corral, Region De Los R\u00edos", "id": "945686725", "lat": "-39.8883856293", "lng": "-73.432592165", "Oct-15-2020": "820"}, {"location": "Sendero Los Colmillos De Chaihu\u00edn", "id": "631203734", "lat": "-39.8824832308", "lng": "-73.4249328923", "Oct-15-2020": "883"}, {"location": "Playa Colun Lagunas Gemelas", "id": "1018270177", "lat": "-39.882481586", "lng": "-73.4249152119", "Oct-15-2020": "796"}, {"location": "Puerto Corral", "id": "880275962361981", "lat": "-39.8824351442", "lng": "-73.4248563117", "Oct-15-2020": "724"}, {"location": "Bahia Corral, Valdivia", "id": "764645164", "lat": "-39.8823325119", "lng": "-73.4245502293", "Oct-15-2020": "467"}, {"location": "Fuerte De Corral, Corral.", "id": "351107042", "lat": "-39.8886927046", "lng": "-73.4260408796", "Oct-15-2020": "434"}, {"location": "Reserva Costera Valdiviana, Chaihuin", "id": "476603000", "lat": "-39.8823811904", "lng": "-73.4245630388", "Oct-15-2020": "320"}, {"location": "Sector La Aguada, Comuna de Corral", "id": "419657801431190", "lat": "-39.8996544", "lng": "-73.4223394", "Oct-15-2020": "295"}, {"location": "Estadio Municipal El Boldo", "id": "306157539478863", "lat": "-39.8906687", "lng": "-73.4334041", "Oct-15-2020": "301"}, {"location": "Chaihuin, Valdivia", "id": "422342201553583", "lat": "-39.8789015", "lng": "-73.427183", "Oct-15-2020": "241"}, {"location": "Cineplanet Valdivia", "id": "566113433491450", "lat": "-39.8168472877", "lng": "-73.2427044616", "Oct-15-2020": "250"}, {"location": "Corral. Fuerte San Sebasti\u00e1n De La Cruz.", "id": "371090903", "lat": "-39.8889041234", "lng": "-73.4256955464", "Oct-15-2020": "240"}, {"location": "Fuerte de Corral, Valdivia", "id": "615769069", "lat": "-39.8868940585", "lng": "-73.4278597031", "Oct-15-2020": "198"}, {"location": "Almac\u00e9n Farmac\u00e9utico Corral", "id": "111799646900826", "lat": "-39.8889711167", "lng": "-73.42756955", "Oct-15-2020": "181"}, {"location": "Playa Pelche, Huiro", "id": "1013038771", "lat": "-39.8824917", "lng": "-73.4249444", "Oct-15-2020": "189"}, {"location": "Muelle y Embarcadero de Corral", "id": "316022569224696", "lat": "-39.8869051378", "lng": "-73.4278069503", "Oct-15-2020": "174"}, {"location": "Liceo Carlos Haverbeck Richter", "id": "711741794", "lat": "-39.889519755", "lng": "-73.432928526", "Oct-15-2020": "153"}, {"location": "Barrio Oriente - Concepci\u00f3n", "id": "1051529404863845", "lat": "-39.9097362345", "lng": "-73.388671875", "Oct-15-2020": "127"}, {"location": "Fuerte San Sebasti\u00e1n de La Cruz, Valdivia", "id": "532251035", "lat": "-39.8886586363", "lng": "-73.4257748225", "Oct-15-2020": "109"}, {"location": "Transbordador Niebla-Corral", "id": "1019662191", "lat": "-39.8826699047", "lng": "-73.4210813814", "Oct-15-2020": "108"}, {"location": "La Aguada Corral", "id": "1152122188144808", "lat": "-39.89894115", "lng": "-73.4207921", "Oct-15-2020": "94"}, {"location": "Muelle Corral", "id": "63623749", "lat": "-39.8872612874", "lng": "-73.4277983744", "Oct-15-2020": "83"}, {"location": "Fuerte San Sebastian De La Cruz", "id": "621902577", "lat": "-39.8886391941", "lng": "-73.4260585305", "Oct-15-2020": "71"}, {"location": "Transbordador Cullamo", "id": "314748765986564", "lat": "-39.8820508827", "lng": "-73.4238333852", "Oct-15-2020": "88"}, {"location": "San Juan", "id": "670955453304854", "lat": "-39.917229808", "lng": "-73.4064385026", "Oct-15-2020": "79"}, {"location": "Plaza De Corral", "id": "252796157", "lat": "-39.8872699543", "lng": "-73.4275280078", "Oct-15-2020": "70"}, {"location": "Reserva Col\u00fan", "id": "424243971303399", "lat": "-39.8825129", "lng": "-73.4249559", "Oct-15-2020": "90"}, {"location": "Playa Chica - Curi\u00f1anco", "id": "2206728972916695", "lat": "-39.8821037436", "lng": "-73.4241473524", "Oct-15-2020": "79"}, {"location": "Camino A Chaihuin", "id": "1028545205", "lat": "-39.8884274", "lng": "-73.4277068", "Oct-15-2020": "87"}, {"location": "Chaihuin-Huiro", "id": "903224771", "lat": "-39.88997941", "lng": "-73.42870668", "Oct-15-2020": "70"}, {"location": "Bahia Corral - Barcaza Cullam\u00f3", "id": "846502673", "lat": "-39.8823345043", "lng": "-73.4245806077", "Oct-15-2020": "67"}, {"location": "Catrilelfu Corral", "id": "1026743272", "lat": "-39.88971705", "lng": "-73.4342345999", "Oct-15-2020": "71"}, {"location": "Quitaluto", "id": "1018330861", "lat": "-39.885937", "lng": "-73.434056", "Oct-15-2020": "50"}, {"location": "La Aguada", "id": "1016392700", "lat": "-39.8989453866", "lng": "-73.4210275584", "Oct-15-2020": "57"}, {"location": "Selva Valdiviana", "id": "289394410", "lat": "-39.8825007", "lng": "-73.4242152", "Oct-15-2020": "53"}, {"location": "Huiro", "id": "289127487", "lat": "-39.8889714", "lng": "-73.4333149", "Oct-15-2020": "41"}, {"location": "Transbordador Bahia de Corral ;)", "id": "1021078468", "lat": "-39.881963", "lng": "-73.42382", "Oct-15-2020": "53"}, {"location": "Los Liles", "id": "606452819", "lat": "-39.8936865967", "lng": "-73.4837937355", "Oct-15-2020": "47"}, {"location": "Escuela De Corral", "id": "344796355", "lat": "-39.8887384841", "lng": "-73.4325960125", "Oct-15-2020": "46"}, {"location": "Plaza de Armas de Corral", "id": "328849594584040", "lat": "-39.8875366952", "lng": "-73.4276909474", "Oct-15-2020": "62"}, {"location": "Feria Costumbrista, Corral", "id": "1027245308", "lat": "-39.8884371833", "lng": "-73.42975775", "Oct-15-2020": "49"}, {"location": "En Corral", "id": "265262537", "lat": "-39.8824230233", "lng": "-73.4249114989", "Oct-15-2020": "50"}, {"location": "Cerro La Marina", "id": "1015041855", "lat": "-39.8832381501", "lng": "-73.4280710503", "Oct-15-2020": "40"}, {"location": "Restaurant La Abuela", "id": "1016869426", "lat": "-39.8880880314", "lng": "-73.4305017143", "Oct-15-2020": "47"}, {"location": "Morro Gonzalo - Corral", "id": "569610816", "lat": "-39.887167975", "lng": "-73.4279681285", "Oct-15-2020": "40"}, {"location": "Ferry Cullamo", "id": "258405296", "lat": "-39.8821885242", "lng": "-73.424253252", "Oct-15-2020": "40"}, {"location": "Puerto Nuevo Supermercado", "id": "123585568498073", "lat": "-39.8891714442", "lng": "-73.4274029732", "Oct-15-2020": "4"}, {"location": "Feria Costumbrista Corral", "id": "476873939491121", "lat": "-39.8883653383", "lng": "-73.4298504763", "Oct-15-2020": "41"}, {"location": "Olimpia Restobar", "id": "267011120919884", "lat": "-39.8877562126", "lng": "-73.427504456", "Oct-15-2020": "31"}, {"location": "Fuerte Corral , Los Rios", "id": "1026997363", "lat": "-39.88880386", "lng": "-73.425507", "Oct-15-2020": "26"}, {"location": "Municipalidad de Corral", "id": "2261332537434519", "lat": "-39.8878515436", "lng": "-73.4274506939", "Oct-15-2020": "35"}, {"location": "Nativo Pub", "id": "599764250", "lat": "-39.8879109807", "lng": "-73.42738777", "Oct-15-2020": "24"}, {"location": "Municipalidad de Corral", "id": "29199866", "lat": "-39.8876715654", "lng": "-73.4275260553", "Oct-15-2020": "26"}, {"location": "Nativo pub", "id": "563184377221174", "lat": "-39.888121612", "lng": "-73.427333388", "Oct-15-2020": "21"}, {"location": "Comuna De Corral, Regi\u00f3n De Los R\u00edos", "id": "101786374896967", "lat": "-39.8882", "lng": "-73.42952", "Oct-15-2020": "24"}, {"location": "Chaihuin, Region De Los Rios. Valdivia", "id": "558820237", "lat": "-39.8871129", "lng": "-73.4277235", "Oct-15-2020": "24"}, {"location": "Transbordador Corral", "id": "2052053704834071", "lat": "-39.8824395401", "lng": "-73.4248476198", "Oct-15-2020": "27"}, {"location": "Feria Fluvial Corral", "id": "288491551640564", "lat": null, "lng": null, "Oct-15-2020": null}, {"location": "Castillo San Juan De La Cruz, Corral", "id": "1026127718", "lat": "-39.88883", "lng": "-73.425752", "Oct-15-2020": "20"}, {"location": "Fuerte San Luis De Alba Amargos, Corral", "id": "1027915077", "lat": "-39.88188", "lng": "-73.42802", "Oct-15-2020": "12"}, {"location": "Cerro Belleza Corral", "id": "960121089", "lat": "-39.89161685", "lng": "-73.42520125", "Oct-15-2020": "12"}, {"location": "Camping El Morrito, Corral", "id": "1025351990", "lat": "-39.9275776", "lng": "-73.40334699", "Oct-15-2020": "17"}, {"location": "Ensenada San Juan (vik i Chile)", "id": "760392994093393", "lat": "-39.91369", "lng": "-73.39279", "Oct-15-2020": "16"}, {"location": "Escuela Basica Corral", "id": "544887092628289", "lat": "-39.8886023887", "lng": "-73.4321639913", "Oct-15-2020": "22"}, {"location": "feria costumbrista CORRAL", "id": "429912077542372", "lat": "-39.8874598003", "lng": "-73.4279671146", "Oct-15-2020": "19"}, {"location": "En la mitad de la bah\u00eda Corral", "id": "1912672542155141", "lat": "-39.8846178445", "lng": "-73.4106054222", "Oct-15-2020": "14"}, {"location": "PUERTO RICO LA PERLA", "id": "864420340", "lat": "-39.8910214", "lng": "-73.4247005", "Oct-15-2020": "11"}, {"location": "Ferry Cullano, Transbordador Corral", "id": "1016044123", "lat": "-39.8848091968", "lng": "-73.4101032564", "Oct-15-2020": "10"}, {"location": "Punta Chan-Chan, Oceano Pacifico", "id": "435446486510709", "lat": "-39.8883378917", "lng": "-73.4275678643", "Oct-15-2020": "10"}, {"location": "Paso Cardenal Antonio Samore", "id": "424650705", "lat": "-39.8869861054", "lng": "-73.4279455408", "Oct-15-2020": "12"}, {"location": "Enduro world Series", "id": "1032051286", "lat": "-39.8872459727", "lng": "-73.4280652274", "Oct-15-2020": "10"}, {"location": "Oc\u00e9ano Pac\u00edfico", "id": "607317574", "lat": "-39.8832731022", "lng": "-73.4263168941", "Oct-15-2020": "9"}, {"location": "Manuel Rodriguez", "id": "206494289433218", "lat": "-39.8876473", "lng": "-73.4353795", "Oct-15-2020": "0"}, {"location": "Gimnasio Municipal De Corral", "id": "226523967500976", "lat": "-39.8888244629", "lng": "-73.4335784912", "Oct-15-2020": "8"}, {"location": "Liceo Politecnico Carlos Haverbeck", "id": "783999417", "lat": "-39.8893957", "lng": "-73.4332359", "Oct-15-2020": "7"}, {"location": "Tenencia De Carabineros Corral", "id": "447174532", "lat": "-39.8892361917", "lng": "-73.4267191239", "Oct-15-2020": "7"}, {"location": "Poblaci\u00f3n Arica, Puerto De Corral, Valdivia, Regi\u00f3n De Los R\u00edos", "id": "1029090490", "lat": "-39.8884631", "lng": "-73.4324412", "Oct-15-2020": "7"}, {"location": "Feria Costumbrista De Corral", "id": "589086611", "lat": "-39.88832462", "lng": "-73.4300602767", "Oct-15-2020": "7"}, {"location": "Planta Pesquera Blumar", "id": "1031466515", "lat": "-39.891365261", "lng": "-73.4235405922", "Oct-15-2020": "7"}, {"location": "BLUMAR SA - Corral", "id": "331376597663203", "lat": "-39.89271", "lng": "-73.420848", "Oct-15-2020": "7"}, {"location": "Isla Puerto Corral", "id": "1027005309", "lat": "-39.8777869", "lng": "-73.42628885", "Oct-15-2020": "5"}, {"location": "Restaurant El Ancla", "id": "662059057180354", "lat": "-39.887598", "lng": "-73.432214", "Oct-15-2020": "7"}, {"location": "Camping Santa Clara, Niebla", "id": "726472047471381", "lat": "-39.8882", "lng": "-73.42952", "Oct-15-2020": "6"}, {"location": "Caba\u00f1as y Tinaja La Esperanza", "id": "491673584559975", "lat": "-39.8882", "lng": "-73.42952", "Oct-15-2020": "5"}, {"location": "Escuela Rural La Aguada", "id": "1025242376", "lat": "-39.88796764", "lng": "-73.42909226", "Oct-15-2020": "6"}, {"location": "Frutillar", "id": "505940205", "lat": "-39.88368698", "lng": "-73.42716718", "Oct-15-2020": "5"}, {"location": "caleta San Juan", "id": "177660733177457", "lat": "-39.8867944714", "lng": "-73.428319683", "Oct-15-2020": "7"}, {"location": "SUSHI \u30b8\u30e3\u30c3\u30ad\u30fc\u30c1\u30a7\u30f3", "id": "1292404247555707", "lat": "-39.88771", "lng": "-73.43337", "Oct-15-2020": "11"}, {"location": "Fuerte", "id": "162865343828339", "lat": "-39.8891290929", "lng": "-73.4252219182", "Oct-15-2020": "5"}, {"location": "Puente Nagilan", "id": "565547580226286", "lat": "-39.8902472", "lng": "-73.4343839", "Oct-15-2020": "3"}, {"location": "Altos del Mirador", "id": "433640500165776", "lat": "-39.95233", "lng": "-73.45749", "Oct-15-2020": "4"}, {"location": "Corral Bajo", "id": "456973234", "lat": "-39.8881037", "lng": "-73.4326483", "Oct-15-2020": "4"}, {"location": "Corral Los Liles", "id": "600656804", "lat": "-39.89268113", "lng": "-73.48412138", "Oct-15-2020": "4"}, {"location": "Feria Gastron\u00f3mica De Corral", "id": "376655479474867", "lat": "-39.8884266667", "lng": "-73.4298916667", "Oct-15-2020": "6"}, {"location": "Fiesta Costumbrista De Corral, Valdivia", "id": "1028441325", "lat": "-39.8865669418", "lng": "-73.4267382311", "Oct-15-2020": "5"}, {"location": "Cadillal", "id": "396156330544954", "lat": "-39.8822980766", "lng": "-73.4249611571", "Oct-15-2020": "4"}, {"location": "En 2da Cia.bomberos Rescate Corral", "id": "1412904512320780", "lat": "-39.88914709", "lng": "-73.43353048", "Oct-15-2020": "5"}, {"location": "Portuaria Corral", "id": "742481808", "lat": "-39.8862463", "lng": "-73.4311535", "Oct-15-2020": "2"}, {"location": "Cerro Milagro", "id": "1029744298", "lat": "-39.8875771", "lng": "-73.427525", "Oct-15-2020": "4"}, {"location": "Casas Fiscales de La Armada", "id": "1003426053", "lat": "-39.8882371471", "lng": "-73.431689613", "Oct-15-2020": "4"}, {"location": "Buenavista Restobar, Corral, Valdivia", "id": "1029005996", "lat": "-39.88748507", "lng": "-73.42874687", "Oct-15-2020": "3"}, {"location": "Black Vegetto", "id": "198312900806482", "lat": null, "lng": null, "Oct-15-2020": null}, {"location": "Chaihuin", "id": "250138535", "lat": "-39.8878965059", "lng": "-73.4329662904", "Oct-15-2020": "4"}, {"location": "Nuestra Se\u00f1ora Del Transito", "id": "273027106136376", "lat": "-39.8892798", "lng": "-73.4267749", "Oct-15-2020": "4"}, {"location": "Famex Turismo Aventura", "id": "812334228887993", "lat": "-39.8914311156", "lng": "-73.4365439415", "Oct-15-2020": "4"}, {"location": "KAMA\u00d1 MAPU", "id": "345390905942039", "lat": "-39.89699", "lng": "-73.4199299", "Oct-15-2020": "3"}, {"location": "Restaurant La Abuela", "id": "492357530903121", "lat": "-39.888121805", "lng": "-73.4304373792", "Oct-15-2020": "3"}, {"location": "Cocineria DELIA", "id": "727260234106397", "lat": "-39.8851313077", "lng": "-73.4786776349", "Oct-15-2020": "4"}, {"location": "Isla Mancera", "id": "333830027", "lat": "-39.887658815", "lng": "-73.4274587917", "Oct-15-2020": "3"}, {"location": "Caba\u00f1a Y Tinaja Puerto Cullamo Corral", "id": "179238882684212", "lat": "-39.8882", "lng": "-73.42952", "Oct-15-2020": "5"}, {"location": "Fundo Futahuente", "id": "1032407201", "lat": "-39.8900615331", "lng": "-73.4260001779", "Oct-15-2020": "3"}, {"location": "Canta mar", "id": "161875594314747", "lat": "-39.8877489026", "lng": "-73.4276401102", "Oct-15-2020": "5"}, {"location": "Cerro Alegre , Corral.", "id": "324692170936179", "lat": "-39.89000065", "lng": "-73.4308431998", "Oct-15-2020": "3"}, {"location": "Escuela Rural La Aguada", "id": "255559991733414", "lat": "-39.8883749", "lng": "-73.4324439", "Oct-15-2020": "3"}, {"location": "Restaurante Rayen", "id": "151356462087500", "lat": "-39.8880943", "lng": "-73.4305036", "Oct-15-2020": "3"}, {"location": "Cerro Caupolican", "id": "437922086310997", "lat": "-39.8918288201", "lng": "-73.425186798", "Oct-15-2020": "2"}, {"location": "Casita De Mami :-)", "id": "498057996900703", "lat": "-39.8894168", "lng": "-73.4269388", "Oct-15-2020": "2"}, {"location": "Cementerio Amargos, Corral", "id": "131328061023133", "lat": "-39.8773691", "lng": "-73.4246682", "Oct-15-2020": "1"}, {"location": "Restaurant Cantamar", "id": "145063082", "lat": "-39.8870905722", "lng": "-73.428440569", "Oct-15-2020": "2"}, {"location": "Karate Kyokushin Dojo Seishin Teisu Valdivia", "id": "1977570309155809", "lat": null, "lng": null, "Oct-15-2020": null}, {"location": "Fiesta De La Cerveza Corral", "id": "377810532579653", "lat": "-39.8877015177", "lng": "-73.4278629903", "Oct-15-2020": "1"}, {"location": "Restaurante Cantamar", "id": "551658978", "lat": "-39.8878674", "lng": "-73.427419", "Oct-15-2020": "1"}, {"location": "Restaurant rayen (corral)", "id": "1031436002", "lat": "-39.88808219", "lng": "-73.430560389", "Oct-15-2020": "2"}, {"location": "Fe\u00f1alandia", "id": "197217880418070", "lat": "-39.889128", "lng": "-73.4329756", "Oct-15-2020": "2"}, {"location": "100% fashion", "id": "1024147080", "lat": null, "lng": null, "Oct-15-2020": null}, {"location": "Caleta Huiro", "id": "1014430204", "lat": "-39.8869237877", "lng": "-73.4282114681", "Oct-15-2020": "2"}, {"location": "Artesan\u00edas Mamime", "id": "170943213819326", "lat": "null", "lng": "null", "Oct-15-2020": "2"}, {"location": "Puerto De Corral", "id": "277594332304885", "lat": "-39.8867195995", "lng": "-73.4276602133", "Oct-15-2020": "0"}, {"location": "Feria Costumbrista Corral", "id": "334569253322111", "lat": "-39.88736172", "lng": "-73.42797364", "Oct-15-2020": "1"}, {"location": "Restaurant Buena Vista", "id": "338368909", "lat": "-39.8875227", "lng": "-73.4288693", "Oct-15-2020": "2"}, {"location": "La Esquina Del Cha", "id": "1540657869523838", "lat": "-39.8886119171", "lng": "-73.4341661632", "Oct-15-2020": "2"}, {"location": "El Nativo", "id": "405877216145754", "lat": "-39.8873444794", "lng": "-73.4275939584", "Oct-15-2020": "1"}, {"location": "Sushi Krico Delivery", "id": "437478060370775", "lat": "null", "lng": "null", "Oct-15-2020": "1"}, {"location": "Turismo Bike Corral", "id": "1589878047740637", "lat": "-39.89034", "lng": "-73.43377", "Oct-15-2020": "1"}, {"location": "La Moro Restaurante", "id": "986403514882061", "lat": "-39.8888762384", "lng": "-73.4272889464", "Oct-15-2020": "2"}, {"location": "Bingo Escuela Rural La Aguada", "id": "891113457763475", "lat": "null", "lng": "null", "Oct-15-2020": "2"}, {"location": "Peluqueria corral janoa", "id": "1865910647060623", "lat": "-39.8892321", "lng": "-73.4267744", "Oct-15-2020": "1"}, {"location": "Caleta Amargos", "id": "359819314113773", "lat": "-39.887668964", "lng": "-73.4176003521", "Oct-15-2020": "0"}, {"location": "Bahia Corral - Barcaza Andalue", "id": "1790068577875788", "lat": "-39.8825133", "lng": "-73.4236967", "Oct-15-2020": "0"}, {"location": "Turismo Chile Austral", "id": "1026713151", "lat": null, "lng": null, "Oct-15-2020": null}, {"location": "Bibliom\u00f3vil de Corral", "id": "1025737602", "lat": "-39.9150391", "lng": "-73.4030075", "Oct-15-2020": "1"}, {"location": "Segunda Compa\u00f1\u00eda De Bomberos Corral", "id": "1028210883", "lat": "-39.8886863667", "lng": "-73.4330111332", "Oct-15-2020": "1"}, {"location": "Feria Costumbrista Corral", "id": "1026620131", "lat": "-39.888412616", "lng": "-73.429964492", "Oct-15-2020": "1"}, {"location": "Niebla, Regi\u00f3n De Los R\u00edos", "id": "716018935", "lat": "-39.8834676255", "lng": "-73.4150815703", "Oct-15-2020": "1"}, {"location": "Barcaza Niebla-Corral", "id": "1549174725200310", "lat": "-39.8833128467", "lng": "-73.4289381109", "Oct-15-2020": "1"}, {"location": "Agrocampigloslilescorral", "id": "1806485702912073", "lat": "-39.8882", "lng": "-73.42952", "Oct-15-2020": "1"}, {"location": "Restaurant Rayen", "id": "2131510300436962", "lat": "-39.8881065934", "lng": "-73.4304127254", "Oct-15-2020": "1"}, {"location": "Sorprende con Amor", "id": "100489281658525", "lat": "-39.8890999", "lng": "-73.4270399", "Oct-15-2020": "1"}, {"location": "Fuerte Mancera", "id": "1020360935", "lat": "-39.88433307", "lng": "-73.41989034", "Oct-15-2020": "3"}, {"location": "Agro Camping Los Liles", "id": "100114481523929", "lat": "-39.8928274164", "lng": "-73.4843331355", "Oct-15-2020": "1"}, {"location": "Caleta Amargo Corral", "id": "1120458581450227", "lat": "-39.8880023", "lng": "-73.4313439", "Oct-15-2020": "1"}, {"location": "Fiesta Costumbrista Corral", "id": "1307543639374710", "lat": "-39.8870257", "lng": "-73.4283945", "Oct-15-2020": "3"}, {"location": "Capitania de Puerto de Corral", "id": "621518289", "lat": "-39.88738014", "lng": "-73.42790752", "Oct-15-2020": "1"}, {"location": "Restaurant Entre Mar", "id": "157321501624493", "lat": "-39.8881298878", "lng": "-73.4306148723", "Oct-15-2020": "1"}, {"location": "Nativo Restobar", "id": "1030495771", "lat": "-39.8880500943", "lng": "-73.4274224249", "Oct-15-2020": "1"}, {"location": "Feria Gastron\u00f3mica Corral", "id": "222589738146080", "lat": "-39.8881286617", "lng": "-73.4305852369", "Oct-15-2020": "1"}, {"location": "Fuerte Corral chile", "id": "154020188595591", "lat": "-39.8906251", "lng": "-73.4222209", "Oct-15-2020": "3"}, {"location": "Feria Gastron\u00f3mica Corral", "id": "209532169601118", "lat": "-39.8884496978", "lng": "-73.4299846832", "Oct-15-2020": "1"}, {"location": "Turismo en Corral", "id": "281290409000035", "lat": "-39.8883885", "lng": "-73.4311628471", "Oct-15-2020": "1"}, {"location": "Virgencita De Corral", "id": "307909290031412", "lat": "-39.8880061957", "lng": "-73.424740116", "Oct-15-2020": "1"}, {"location": "Dulce Cita", "id": "107965787220305", "lat": "null", "lng": "null", "Oct-15-2020": "2"}, {"location": "Feria Costumbrista de Corral", "id": "242211985865235", "lat": "-39.8884865543", "lng": "-73.4299817779", "Oct-15-2020": "1"}, {"location": "Hecho a Coraz\u00f3n", "id": "503653623490505", "lat": "-39.8892598", "lng": "-73.4268", "Oct-15-2020": "1"}, {"location": "Liceo Corral", "id": "727907066", "lat": "-39.8881388674", "lng": "-73.4325678586", "Oct-15-2020": "1"}, {"location": "Restaurante Cantamar - Corral", "id": "286489115", "lat": "-39.8871441605", "lng": "-73.4278044901", "Oct-15-2020": "1"}, {"location": "Lagunas Gemelas Colun", "id": "707622225", "lat": "-39.8825159", "lng": "-73.4249099", "Oct-15-2020": "1"}, {"location": "Lacasademiabuelita", "id": "1011610069", "lat": "-39.89894104", "lng": "-73.4211502075", "Oct-15-2020": "1"}]