[{"location": "Los Lagos, Chile", "id": "236442295", "lat": "-39.85886", "lng": "-72.80497", "Oct-17-2020": "64883"}, {"location": "Nercon, Chiloe", "id": "236606055", "lat": "-42.5019427922", "lng": "-73.7853854111", "Oct-17-2020": "4566"}, {"location": "Los Lagos,ruta 5 Sur, Km 830", "id": "856385157816350", "lat": "-39.8454038335", "lng": "-72.8108839107", "Oct-17-2020": "3170"}, {"location": "Ciudad Los Lagos Region De Los Rios", "id": "885611084", "lat": "-39.8613886225", "lng": "-72.8088517297", "Oct-17-2020": "1765"}, {"location": "Lago Ri\u00f1ihue, Regi\u00f3n de Los Rios", "id": "581048947", "lat": "-39.86576161", "lng": "-72.80206214", "Oct-17-2020": "1493"}, {"location": "Parque Nacional Puyehue - Sector Anticura", "id": "1572995482991739", "lat": "-39.85886", "lng": "-72.80497", "Oct-17-2020": "848"}, {"location": "Ciudad Los Lagos", "id": "212908565", "lat": "-39.861507609", "lng": "-72.8107406027", "Oct-17-2020": "1560"}, {"location": "Los Lagos Ruta 5 Sur", "id": "257793233", "lat": "-39.8521571902", "lng": "-72.8057578183", "Oct-17-2020": "1065"}, {"location": "Comuna De Los Lagos, Region De Los Rios", "id": "912455398905562", "lat": "-39.86202148", "lng": "-72.8046314", "Oct-17-2020": "1360"}, {"location": "Polideportivo de Castro", "id": "277061944", "lat": "-42.4645338056", "lng": "-73.7853968978", "Oct-17-2020": "924"}, {"location": "Playa Grande Licanrray", "id": "510636911", "lat": "-39.85986465", "lng": "-72.8073999", "Oct-17-2020": "936"}, {"location": "Auto Museum Moncapulli", "id": "509663093", "lat": "-40.6092951155", "lng": "-72.8200877522", "Oct-17-2020": "1029"}, {"location": "Cuartel 50 Restaurante", "id": "1794631497438512", "lat": "-39.8676258274", "lng": "-72.7815255131", "Oct-17-2020": "321"}, {"location": "Isla de Chilo\u00e9", "id": "917399145", "lat": "-39.8653793", "lng": "-72.8073959", "Oct-17-2020": "558"}, {"location": "Pastahue", "id": "480805351969882", "lat": "-39.86433", "lng": "-72.8081799", "Oct-17-2020": "517"}, {"location": "Lago Ri\u00f1ihue", "id": "271265117", "lat": "-39.8625938", "lng": "-72.7823604", "Oct-17-2020": "406"}, {"location": "Parque Saval Valdivia", "id": "643400672", "lat": "-39.8624484", "lng": "-72.8125782", "Oct-17-2020": "323"}, {"location": "Elysa.c Hairdressers Renuevate", "id": "564474503717407", "lat": "-39.8627685296", "lng": "-72.813009877", "Oct-17-2020": "527"}, {"location": "Centro de Eventos Sayka", "id": "1030969992", "lat": "-39.8722290261", "lng": "-72.7703267509", "Oct-17-2020": "370"}, {"location": "Colegio Cahuala", "id": "1010582603", "lat": null, "lng": null, "Oct-17-2020": null}, {"location": "Regi\u00f3n De Los Lagos", "id": "259399209", "lat": "-39.86147435", "lng": "-72.8103003167", "Oct-17-2020": "289"}, {"location": "Iglesia Nuestra Se\u00f1ora de Gracia de Nerc\u00f3n", "id": "1027784969", "lat": "-42.5016435485", "lng": "-73.7854951394", "Oct-17-2020": "375"}, {"location": "Region de los Lagos", "id": "571709844", "lat": "-39.8870019547", "lng": "-72.7965714701", "Oct-17-2020": "277"}, {"location": "Ruta 5 Sur Los Lagos, Regi\u00f3n De Los R\u00edos.", "id": "445024185", "lat": "-39.8869440986", "lng": "-72.7966035018", "Oct-17-2020": "233"}, {"location": "Los Lagos", "id": "776875", "lat": null, "lng": null, "Oct-17-2020": null}, {"location": "Plaza de Los Lagos", "id": "597557222", "lat": "-39.8630292378", "lng": "-72.8122570585", "Oct-17-2020": "236"}, {"location": "Spa Natura Vitale Wellness", "id": "74741551", "lat": "-42.4895010723", "lng": "-73.7708870366", "Oct-17-2020": "269"}, {"location": "Hostal Tren del Sur", "id": "797998050306663", "lat": "-39.8632522571", "lng": "-72.8201514286", "Oct-17-2020": "257"}, {"location": "Parque Nacional Puyehue", "id": "766876463", "lat": "-39.8633766594", "lng": "-72.8032516782", "Oct-17-2020": "177"}, {"location": "Parcela El Aromo, Tom\u00e9n", "id": "233308513738552", "lat": "-39.856075", "lng": "-72.815295", "Oct-17-2020": "204"}, {"location": "Estadio Municipal Samuel Valk de Los Lagos", "id": "321636531996951", "lat": "-39.8609252228", "lng": "-72.805886823", "Oct-17-2020": "238"}, {"location": "Pancul, Los Lagos", "id": "565907925", "lat": "-39.8547343301", "lng": "-72.7865722949", "Oct-17-2020": "196"}, {"location": "Rio San Pedro - Los Lagos", "id": "332991750", "lat": "-39.858487926", "lng": "-72.806058104", "Oct-17-2020": "163"}, {"location": "Archipi\u00e9lago de Chilo\u00e9", "id": "178675066187158", "lat": "null", "lng": "null", "Oct-17-2020": "190"}, {"location": "Sayka", "id": "122784631197610", "lat": "-39.8721773592", "lng": "-72.7703179163", "Oct-17-2020": "164"}, {"location": "Los Calisos", "id": "496327025", "lat": "-41.7716018", "lng": "-73.1306587", "Oct-17-2020": "142"}, {"location": "Caburga", "id": "1032061450", "lat": "-39.8625782227", "lng": "-72.8121588352", "Oct-17-2020": "214"}, {"location": "Turismo tell camping los suizos", "id": "1022945268", "lat": null, "lng": null, "Oct-17-2020": null}, {"location": "Los Lagos Region De Los Rios", "id": "213358807", "lat": "-39.8724053251", "lng": "-72.7825058665", "Oct-17-2020": "144"}, {"location": "Salto del Huilo Huilo", "id": "659893644", "lat": "-39.86174359", "lng": "-72.81008162", "Oct-17-2020": "127"}, {"location": "Localidad De Tom\u00e9n, Los Lagos.", "id": "1009971191", "lat": "-39.8457152419", "lng": "-72.8143810496", "Oct-17-2020": "108"}, {"location": "Yutuy, Chilo\u00e9", "id": "1027535507", "lat": "-39.85886", "lng": "-72.80497", "Oct-17-2020": "155"}, {"location": "R\u00edo San Pedro, Los Lagos", "id": "338628015", "lat": "-39.8689130303", "lng": "-72.8050343939", "Oct-17-2020": "132"}, {"location": "Tiempo Discotheque", "id": "1023560831", "lat": "-39.86358524", "lng": "-72.81552555", "Oct-17-2020": "128"}, {"location": "Caf\u00e9 Laguino", "id": "1029391821", "lat": null, "lng": null, "Oct-17-2020": null}, {"location": "escuela Francia de Los Lagos", "id": "1017846457", "lat": "-39.8634276474", "lng": "-72.8109747985", "Oct-17-2020": "154"}, {"location": "Comuna De Los Lagos, Regi\u00f3n De Los R\u00edos", "id": "105876081148775", "lat": "-39.85886", "lng": "-72.80497", "Oct-17-2020": "106"}, {"location": "Flor Del Lago", "id": "239248080", "lat": "-39.8656334", "lng": "-72.8073553", "Oct-17-2020": "94"}, {"location": "Cerro San Ambrosio Los Lagos", "id": "106763790851938", "lat": "-39.8605402", "lng": "-72.8078524", "Oct-17-2020": "104"}, {"location": "El Nuevo Campero", "id": "803241827", "lat": "-39.8621470067", "lng": "-72.8166397467", "Oct-17-2020": "93"}, {"location": "Puacura", "id": "948103322", "lat": "-42.4038489612", "lng": "-73.7128512733", "Oct-17-2020": "116"}, {"location": "Ustaritz Los Lagos", "id": "716229282", "lat": "-39.859767", "lng": "-72.8135738", "Oct-17-2020": "72"}, {"location": "M\u00edstica Austral", "id": "298328780800800", "lat": "-39.8643569", "lng": "-72.8082471", "Oct-17-2020": "102"}, {"location": "P U B G", "id": "110813097331775", "lat": "-39.85882", "lng": "-72.80487", "Oct-17-2020": "80"}, {"location": "El Chucao", "id": "730094223799955", "lat": "-39.8624211", "lng": "-72.8094268", "Oct-17-2020": "121"}, {"location": "Pub Thecity Los Lagos", "id": "1776575145888281", "lat": "-39.862189772", "lng": "-72.8166170616", "Oct-17-2020": "89"}, {"location": "Balsa San Pedro, Los Lagos", "id": "715902327", "lat": "-39.8630533333", "lng": "-72.8132316667", "Oct-17-2020": "105"}, {"location": "Gimnasio Municipal Los Lagos", "id": "116719375", "lat": "-39.8633282604", "lng": "-72.8124176127", "Oct-17-2020": "82"}, {"location": "Shell, Los Lagos.", "id": "584793993", "lat": "-39.8869728895", "lng": "-72.7966094251", "Oct-17-2020": "63"}, {"location": "Cervecer\u00eda Saika", "id": "1018501275", "lat": "-39.8721811916", "lng": "-72.7702601835", "Oct-17-2020": "83"}, {"location": "DeRio Restobar", "id": "751938701831203", "lat": "-39.8619785", "lng": "-72.8178593", "Oct-17-2020": "98"}, {"location": "Yeri", "id": "106876994427900", "lat": "-39.86544", "lng": "-72.80189", "Oct-17-2020": "88"}, {"location": "Escuela Nueva Espa\u00f1a, Los Lagos", "id": "310607497", "lat": "-39.8595331668", "lng": "-72.8063559601", "Oct-17-2020": "61"}, {"location": "Mirador Rio San Pedro", "id": "255148095156524", "lat": "-39.8729123646", "lng": "-72.8025687265", "Oct-17-2020": "62"}, {"location": "YACO ALTO", "id": "1031603006", "lat": "-39.860563", "lng": "-72.8077861", "Oct-17-2020": "78"}, {"location": "Villa Collilelfu", "id": "256480561737585", "lat": "-39.867402", "lng": "-72.815344", "Oct-17-2020": "62"}, {"location": "Terminal De Buses Los Lagos", "id": "64040532", "lat": "-39.8619507", "lng": "-72.8095403", "Oct-17-2020": "56"}, {"location": "Consultora", "id": "1567871990192014", "lat": null, "lng": null, "Oct-17-2020": null}, {"location": "Ustaritz", "id": "1030326925", "lat": "-39.8608039125", "lng": "-72.7976065644", "Oct-17-2020": "55"}, {"location": "Villa San Pedro, Los Lagos", "id": "314640827", "lat": "-39.86255205", "lng": "-72.8038789499", "Oct-17-2020": "59"}, {"location": "Hospital Los Lagos", "id": "133864433907385", "lat": "-39.8629736151", "lng": "-72.8100877573", "Oct-17-2020": "42"}, {"location": "Restaurante y Cervecer\u00eda La Curva", "id": "1996686520623712", "lat": "-39.8631477", "lng": "-72.8137689", "Oct-17-2020": "50"}, {"location": "Sector Tom\u00e9n, Los Lagos", "id": "630825088", "lat": "-39.8455987705", "lng": "-72.8140110498", "Oct-17-2020": "36"}, {"location": "Termas Co\u00f1aripe", "id": "1009420137", "lat": "-39.86209559", "lng": "-72.816731035", "Oct-17-2020": "50"}, {"location": "La Plaza Vieja Restaurant & SushiBar", "id": "1029774319", "lat": "-39.8635301973", "lng": "-72.8165070348", "Oct-17-2020": "66"}, {"location": "Parque Nacional Puyehue - Sector Aguas Calientes", "id": "1030507448", "lat": "-39.85886", "lng": "-72.80497", "Oct-17-2020": "68"}, {"location": "Cerveceria Artesanal Sayka", "id": "301575860683488", "lat": "-39.8454445", "lng": "-72.810734", "Oct-17-2020": "27"}, {"location": "Estadio Municipal Los Lagos", "id": "651115781", "lat": "-39.8609087001", "lng": "-72.8054820602", "Oct-17-2020": "50"}, {"location": "Estadio Municipal Samuel Valk", "id": "283210942", "lat": "-39.8613756389", "lng": "-72.8053996862", "Oct-17-2020": "46"}, {"location": "Parque E\u00f3lico San Pedro de Dalcahue", "id": "192044404563397", "lat": "-39.863145", "lng": "-72.8089292", "Oct-17-2020": "54"}, {"location": "Liceo Alberto Blest Gana - Departamento de Orientaci\u00f3n", "id": "1624822311094168", "lat": null, "lng": null, "Oct-17-2020": null}, {"location": "R\u00edo Collileufu", "id": "1695090880730041", "lat": "-39.85849", "lng": "-72.81342", "Oct-17-2020": "46"}, {"location": "Morro, Los Lagos", "id": "1013154456", "lat": "-39.8608550006", "lng": "-72.7879499996", "Oct-17-2020": "30"}, {"location": "Escuela Nueva Espa\u00f1a", "id": "211871142671875", "lat": "-39.8595273917", "lng": "-72.8061988483", "Oct-17-2020": "45"}, {"location": "Camping Los Suizos", "id": "63482357", "lat": "-39.8599472", "lng": "-72.8074988", "Oct-17-2020": "36"}, {"location": "Estadio Municipal Los Lagos", "id": "1528265653892963", "lat": "-39.8609208402", "lng": "-72.805845198", "Oct-17-2020": "39"}, {"location": "Escuela Basica Nevada Los Lagos", "id": "875181869", "lat": "-39.8686107277", "lng": "-72.8054944244", "Oct-17-2020": "45"}, {"location": "Gym Municipal", "id": "1028756384", "lat": "-39.8641285722", "lng": "-72.8120583312", "Oct-17-2020": "38"}, {"location": "Quinchilca", "id": "488671377", "lat": "-39.8690018", "lng": "-72.7702728336", "Oct-17-2020": "31"}, {"location": "Rio Quinchilca", "id": "571281727", "lat": "-39.8630729", "lng": "-72.8117424", "Oct-17-2020": "31"}, {"location": "Plaza De Los Lagos", "id": "292762354586026", "lat": "-39.8630748709", "lng": "-72.8122437", "Oct-17-2020": "42"}, {"location": "Parque Natural R\u00edo Bravo", "id": "947657441952468", "lat": null, "lng": null, "Oct-17-2020": null}, {"location": "A La Conshesumadre", "id": "292663508240526", "lat": "-39.912829843", "lng": "-72.7973231573", "Oct-17-2020": "39"}, {"location": "El mata hambre", "id": "1015891061929326", "lat": "-39.8657924406", "lng": "-72.8071045876", "Oct-17-2020": "18"}, {"location": "Belleza Laguina", "id": "276907062764135", "lat": "-39.85886", "lng": "-72.80497", "Oct-17-2020": "36"}, {"location": "Hustariz Los Lagos", "id": "819206118169236", "lat": "-39.8592492", "lng": "-72.8105036", "Oct-17-2020": "42"}, {"location": "Huidif", "id": "265350783631327", "lat": "-39.861953", "lng": "-72.8095475", "Oct-17-2020": "37"}, {"location": "Terminal De Buses Los Lagos", "id": "1679883102040852", "lat": "-39.8619491", "lng": "-72.8095461", "Oct-17-2020": "34"}, {"location": "Espacio Salud", "id": "207210996837864", "lat": "-39.8594991", "lng": "-72.8073876", "Oct-17-2020": "28"}, {"location": "Feria Gastron\u00f3mica De Los Lagos", "id": "310224166287939", "lat": "-39.8619246", "lng": "-72.8101805", "Oct-17-2020": "31"}, {"location": "Mi Terraza", "id": "287723034682133", "lat": "-39.8629731", "lng": "-72.82195609", "Oct-17-2020": "21"}, {"location": "Prolesur, Los Lagos", "id": "391312128", "lat": "-39.8582608903", "lng": "-72.7961818016", "Oct-17-2020": "31"}, {"location": "Poblacion 11 Septiembre", "id": "996343691", "lat": null, "lng": null, "Oct-17-2020": null}, {"location": "El Campito De La Nona", "id": "618669811535140", "lat": "-39.8753137", "lng": "-72.7977164", "Oct-17-2020": "30"}, {"location": "Los Lagos Hist\u00f3rico", "id": "632513237130346", "lat": "-39.8629431072", "lng": "-72.8121900558", "Oct-17-2020": "35"}, {"location": "La Sure\u00f1a", "id": "100175721717657", "lat": "null", "lng": "null", "Oct-17-2020": "5"}, {"location": "Casa De Mis Queridos Padres", "id": "1023418881", "lat": "-39.8548243102", "lng": "-72.7865723614", "Oct-17-2020": "28"}, {"location": "Co\u00f1aripe", "id": "918047662", "lat": "-39.86699243", "lng": "-72.81715558", "Oct-17-2020": "36"}, {"location": "Plaza, Los Lagos", "id": "36185664", "lat": "-39.8639015145", "lng": "-72.8127231216", "Oct-17-2020": "31"}, {"location": "El Morro", "id": "472794778", "lat": "-39.8590144", "lng": "-72.8064556", "Oct-17-2020": "21"}, {"location": "Escuela Collilelfu", "id": "179362185849822", "lat": "-39.8666594035", "lng": "-72.8172189001", "Oct-17-2020": "29"}, {"location": "Los Lagos. Prolesur", "id": "307974049720086", "lat": "-39.8583794424", "lng": "-72.7959213499", "Oct-17-2020": "33"}, {"location": "Fluye San Pedro", "id": "1944101785637694", "lat": "null", "lng": "null", "Oct-17-2020": "25"}, {"location": "Liceo Alberto Blest Gana", "id": "91777686", "lat": "-39.8648281062", "lng": "-72.804069132", "Oct-17-2020": "24"}, {"location": "Cuartel 50", "id": "996164390468210", "lat": "-39.8675823", "lng": "-72.7815483", "Oct-17-2020": "24"}, {"location": "Rio Calle Calle Valdivia", "id": "659427479", "lat": "-39.86281841", "lng": "-72.810844", "Oct-17-2020": "23"}, {"location": "Ferreter\u00eda San Pablo", "id": "1980256885535074", "lat": "-39.8616671", "lng": "-72.8110529333", "Oct-17-2020": "22"}, {"location": "Club el Morro Los Lagos", "id": "1269721979730354", "lat": "-39.8630870889", "lng": "-72.7888092282", "Oct-17-2020": "16"}, {"location": "Estero Chapuco", "id": "953337151424019", "lat": "-39.90863", "lng": "-72.80769", "Oct-17-2020": "29"}, {"location": "Jardin Girasol", "id": "394541340589607", "lat": "-39.8591929", "lng": "-72.80087", "Oct-17-2020": "33"}, {"location": "Balsa San Pedro", "id": "1026746917", "lat": "-39.86074797", "lng": "-72.7976928667", "Oct-17-2020": "21"}, {"location": "Parque Santa Laura, Mariquina", "id": "1026748579", "lat": "-39.8962577631", "lng": "-72.8203102312", "Oct-17-2020": "21"}, {"location": "Planta Soprole Los Lagos", "id": "837063932989444", "lat": "-39.8583113636", "lng": "-72.7962479298", "Oct-17-2020": "8"}, {"location": "En Mi Casa Los Lagos", "id": "994031673", "lat": "-39.8583959", "lng": "-72.8075121", "Oct-17-2020": "23"}, {"location": "Escuela Nueva Collilelfu", "id": "345266722610343", "lat": "-39.8666384", "lng": "-72.8173426", "Oct-17-2020": "23"}, {"location": "Terpel Los Lagos", "id": "4068377", "lat": "-39.8869808715", "lng": "-72.796572005", "Oct-17-2020": "23"}, {"location": "Venus", "id": "299723247386270", "lat": "null", "lng": "null", "Oct-17-2020": "23"}, {"location": "Casa Abuelita Lupe", "id": "1017776904", "lat": "-39.8604758726", "lng": "-72.8142546528", "Oct-17-2020": "22"}, {"location": "Balmaceda , Coyhaique", "id": "733880338", "lat": "-39.861571", "lng": "-72.8033929", "Oct-17-2020": "16"}, {"location": "Ryori Nikkei", "id": "104733057813139", "lat": "null", "lng": "null", "Oct-17-2020": "16"}, {"location": "Puente San Pedro", "id": "44044740", "lat": "-39.8589692437", "lng": "-72.8038413486", "Oct-17-2020": "18"}, {"location": "Ruta 5 Sur", "id": "247318805341555", "lat": "-39.8870055", "lng": "-72.796622", "Oct-17-2020": "16"}, {"location": "Caba\u00f1as Cancura", "id": "320086472125038", "lat": "-39.8725514352", "lng": "-72.7835133298", "Oct-17-2020": "19"}, {"location": "Todo tiempo pasado fue mejor", "id": "113465160346179", "lat": "-39.86414", "lng": "-72.82117", "Oct-17-2020": "18"}, {"location": "La Bombonera Los lagos", "id": "370544293467719", "lat": "null", "lng": "null", "Oct-17-2020": "5"}, {"location": "Costanera Los Lagos", "id": "727659150914694", "lat": "-39.858403", "lng": "-72.8077529", "Oct-17-2020": "11"}, {"location": "Fuerza del Sur", "id": "108353297313072", "lat": "-39.8620473056", "lng": "-72.8158852129", "Oct-17-2020": "30"}, {"location": "Delsur Computacion", "id": "347328959463756", "lat": "-39.8631374", "lng": "-72.8137525", "Oct-17-2020": "20"}, {"location": "Sades Cafe y Chocolateria", "id": "105690804171573", "lat": "null", "lng": "null", "Oct-17-2020": "14"}, {"location": "Putreguel", "id": "355656357814941", "lat": "-39.8664653", "lng": "-72.7946764", "Oct-17-2020": "18"}, {"location": "Hospital de Los Lagos", "id": "808194395", "lat": null, "lng": null, "Oct-17-2020": null}, {"location": "Rio Malihue", "id": "939864173", "lat": "-39.8694916", "lng": "-72.8041", "Oct-17-2020": "16"}, {"location": "Los Tranqueros", "id": "608324148", "lat": null, "lng": null, "Oct-17-2020": null}, {"location": "Santiago", "id": "469762944", "lat": "-39.8606342", "lng": "-72.801542", "Oct-17-2020": "15"}, {"location": "Lac Ri\u00f1ihue", "id": "108017459226192", "lat": "-39.8433333333", "lng": "-72.2941666667", "Oct-17-2020": "17"}, {"location": "La cueva de la rata", "id": "1665212600410448", "lat": "-39.86433", "lng": "-72.8081799", "Oct-17-2020": "17"}, {"location": "Santa Carla, Los Lagos", "id": "161883944393736", "lat": "-39.86543", "lng": "-72.80186", "Oct-17-2020": "15"}, {"location": "Escuela Arte dram\u00e1tico Osorno", "id": "873564826018018", "lat": "-39.8613892", "lng": "-72.8174973", "Oct-17-2020": "15"}, {"location": "Trawun Pizzas Delivery", "id": "260071597949875", "lat": "-39.86522", "lng": "-72.82208", "Oct-17-2020": "11"}, {"location": "40 & 20 RestoBar", "id": "1025020397", "lat": "-39.8620198267", "lng": "-72.8178805502", "Oct-17-2020": "17"}, {"location": "Purey Los Lagos", "id": "1026898135", "lat": "-39.8621372", "lng": "-72.8153479", "Oct-17-2020": "12"}, {"location": "Castro Chiloe", "id": "110888003976764", "lat": "-39.861506", "lng": "-72.8104411", "Oct-17-2020": "11"}, {"location": "Clinica Ri\u00f1ihue", "id": "231076770393245", "lat": "-39.8612310577", "lng": "-72.8179718685", "Oct-17-2020": "4"}, {"location": "Esc. Rural El Salto", "id": "1293096857476198", "lat": "-39.860731", "lng": "-72.819464", "Oct-17-2020": "13"}, {"location": "Municipalidad de Los Lagos", "id": "2126647854038579", "lat": "-39.8630536439", "lng": "-72.816429416", "Oct-17-2020": "15"}, {"location": "Fundo Mi Tierra,folilco", "id": "1374600449534879", "lat": "-39.8665447", "lng": "-72.816855", "Oct-17-2020": "17"}, {"location": "Planta Prolesur Los Lagos", "id": "1028465871", "lat": "-39.8589903063", "lng": "-72.7967381417", "Oct-17-2020": "4"}, {"location": "estacion FFCC Los Lagos.", "id": "764928576", "lat": "-39.86439968", "lng": "-72.80239833", "Oct-17-2020": "14"}, {"location": "Nuevo Horizonte Delivery LosLagos", "id": "226920377655855", "lat": "-39.8582766312", "lng": "-72.8016581056", "Oct-17-2020": "11"}, {"location": "Los R\u00edos Tours", "id": "101355571269812", "lat": "-39.8622837", "lng": "-72.8151604", "Oct-17-2020": "13"}, {"location": "Soc. Constructora Hector meza Hermosilla", "id": "2022158141331682", "lat": "-39.85886", "lng": "-72.80497", "Oct-17-2020": "12"}, {"location": "La Plaza Vieja Restaurant & Sushibar", "id": "236767012", "lat": null, "lng": null, "Oct-17-2020": null}, {"location": "La Rucabar", "id": "147230402", "lat": "-39.8621267616", "lng": "-72.8149689125", "Oct-17-2020": "15"}, {"location": "Cerveza Artesanal Sayka", "id": "146854105456656", "lat": "-39.8716508418", "lng": "-72.7700537928", "Oct-17-2020": "11"}, {"location": "La Korito PJ", "id": "630734300746834", "lat": "null", "lng": "null", "Oct-17-2020": "14"}, {"location": "UNIMARC", "id": "574295389580885", "lat": "-39.8621031078", "lng": "-72.8155589104", "Oct-17-2020": "5"}, {"location": "Huinca Qui\u00f1ay", "id": "721977673", "lat": "null", "lng": "null", "Oct-17-2020": "14"}, {"location": "Cesfam Tomas Rojas Vergara", "id": "813819818", "lat": "-39.8629041885", "lng": "-72.8116584445", "Oct-17-2020": "10"}, {"location": "Comuna De Los Lagos", "id": "892258111", "lat": "-39.8619443", "lng": "-72.8165097", "Oct-17-2020": "9"}, {"location": "Casa Martinez Dubreuil", "id": "519723109", "lat": "-39.86289206", "lng": "-72.82137978", "Oct-17-2020": "12"}, {"location": "Puerto Varas", "id": "320653975", "lat": "-39.88699815", "lng": "-72.79670459", "Oct-17-2020": "12"}, {"location": "AMARU", "id": "1532162857071360", "lat": "-39.8635701348", "lng": "-72.8137204681", "Oct-17-2020": "27"}, {"location": "Clases de kayak Los R\u00edos", "id": "2100571513335936", "lat": "-39.8622837", "lng": "-72.8151604", "Oct-17-2020": "10"}, {"location": "Bambie", "id": "984639327", "lat": null, "lng": null, "Oct-17-2020": null}, {"location": "Mirador Puente Quinchilca - Los Lagos", "id": "331513000982873", "lat": "-39.859745414", "lng": "-72.8035843573", "Oct-17-2020": "13"}, {"location": "Parque Natural Rio Bravo", "id": "1630673337059771", "lat": "-39.86544", "lng": "-72.8019", "Oct-17-2020": "12"}, {"location": "Casita De Mis Papis", "id": "1018656064", "lat": "-39.8601043167", "lng": "-72.8133916833", "Oct-17-2020": "10"}, {"location": "Piso 2 Restobar Producciones", "id": "106085174079368", "lat": "-39.862084842", "lng": "-72.815839299", "Oct-17-2020": "5"}, {"location": "YWAM JUCUM Chiloe", "id": "1205199392844115", "lat": "-39.864479", "lng": "-72.8078487", "Oct-17-2020": "11"}, {"location": "Carretera 5 Sur", "id": "984952852", "lat": "-39.90847273", "lng": "-72.79318659", "Oct-17-2020": "9"}, {"location": "Newentropia", "id": "508267609611068", "lat": "-39.86544", "lng": "-72.8019", "Oct-17-2020": "5"}, {"location": "Hospital Base Los Lagos", "id": "473265096098605", "lat": "-39.862975735", "lng": "-72.8097430033", "Oct-17-2020": "8"}, {"location": "AutoAhorro AC&M", "id": "110955183803391", "lat": "-39.85882", "lng": "-72.80487", "Oct-17-2020": "10"}, {"location": "Municipalidad De Los Lagos", "id": "8133454", "lat": "-39.8630599197", "lng": "-72.8164542988", "Oct-17-2020": "7"}, {"location": "La Ruka Restobar Sushi And seafood", "id": "1335285839937592", "lat": "null", "lng": "null", "Oct-17-2020": "9"}, {"location": "MA LUNE", "id": "818130141898342", "lat": "null", "lng": "null", "Oct-17-2020": "11"}, {"location": "Villa San Pedro", "id": "2176420992679023", "lat": "-39.8587022091", "lng": "-72.8051077957", "Oct-17-2020": "10"}, {"location": "La Plaza Vieja Restaurant Y Sushi Bar", "id": "678508677", "lat": "-39.8628901551", "lng": "-72.8166666658", "Oct-17-2020": "7"}, {"location": "Caba\u00f1as Cancura, Los Lagos Regi\u00f3n, De Los R\u00edos", "id": "1023029311", "lat": "-39.872508", "lng": "-72.783422", "Oct-17-2020": "8"}, {"location": "Purey", "id": "557059583", "lat": "-39.8584652333", "lng": "-72.8058746", "Oct-17-2020": "8"}, {"location": "Procesadora", "id": "1398125127105347", "lat": "-39.8676038", "lng": "-72.8118266", "Oct-17-2020": "6"}, {"location": "Gimnasio Municipal Los Lagos", "id": "326154907818618", "lat": "-39.8643672", "lng": "-72.8124053", "Oct-17-2020": "8"}, {"location": "Los Lagos Ruta 5", "id": "1004180432", "lat": "-39.8762599428", "lng": "-72.7985379543", "Oct-17-2020": "9"}, {"location": "Fundo San Nicol\u00e1s", "id": "623477691", "lat": "-39.86095806", "lng": "-72.81026345", "Oct-17-2020": "8"}, {"location": "Refugio Camila Bel\u00e9n", "id": "477867909062163", "lat": "-39.8588486", "lng": "-72.8049622", "Oct-17-2020": "9"}, {"location": "The City, Los Lagos", "id": "1026814792", "lat": "-39.8621606569", "lng": "-72.815627788", "Oct-17-2020": "6"}, {"location": "Santuario Virgen de La Candelaria Quinchilca", "id": "1026878713", "lat": "-39.8630221", "lng": "-72.8133328", "Oct-17-2020": "7"}, {"location": "\u00d3ptica Optisur", "id": "437589546450868", "lat": "-39.864281", "lng": "-72.8079623", "Oct-17-2020": "7"}, {"location": "Mi Cama , Mi Casa.", "id": "769809441", "lat": "-39.8660271", "lng": "-72.816105", "Oct-17-2020": "7"}, {"location": "Complejo Turistico Cancura", "id": "430147907005384", "lat": "-39.87321922", "lng": "-72.78300845", "Oct-17-2020": "6"}, {"location": "El Morro", "id": "854866668191997", "lat": "-39.85872", "lng": "-72.80455", "Oct-17-2020": "7"}, {"location": "Pangipulli", "id": "301033049947033", "lat": "-39.861136", "lng": "-72.8077538", "Oct-17-2020": "6"}, {"location": "Tecnomarket", "id": "444792819065321", "lat": "-39.8638001", "lng": "-72.8088167", "Oct-17-2020": "8"}, {"location": "Divino Infierno", "id": "268225963535122", "lat": "-42.4606", "lng": "-73.76379", "Oct-17-2020": "9"}, {"location": "Restaurant Don Tito", "id": "2222194628104864", "lat": "-39.8600536", "lng": "-72.808984", "Oct-17-2020": "12"}, {"location": "Copec Los Lagos Coprinsen", "id": "408862299181263", "lat": "-39.8609785656", "lng": "-72.7941261328", "Oct-17-2020": "6"}, {"location": "Campo De Concentraci\u00f3n Abg", "id": "595902323925711", "lat": "-39.8644139", "lng": "-72.80383726", "Oct-17-2020": "5"}, {"location": "Tatiana regalos y accesorios", "id": "1455417654758144", "lat": "-39.8596173", "lng": "-72.8068516", "Oct-17-2020": "9"}, {"location": "Shell Los lagos", "id": "127043971262663", "lat": "-39.8869573045", "lng": "-72.7966337573", "Oct-17-2020": "9"}, {"location": "Hostal Tren del Sur", "id": "105408337856158", "lat": "-39.86521", "lng": "-72.82199", "Oct-17-2020": "8"}, {"location": "Olympus", "id": "781990305340195", "lat": null, "lng": null, "Oct-17-2020": null}, {"location": "En casa - Los Lagos", "id": "484442811", "lat": "-39.8581285667", "lng": "-72.8008786333", "Oct-17-2020": "5"}, {"location": "Juzgado De Policia Local", "id": "418348638213824", "lat": "-39.8686257", "lng": "-72.8017075", "Oct-17-2020": "6"}, {"location": "Cementerio Los Lagos", "id": "179996455870730", "lat": "-39.8612061524", "lng": "-72.7939155717", "Oct-17-2020": "5"}, {"location": "Mundo De Ni\u00f1os", "id": "1002601128", "lat": "-39.8634605", "lng": "-72.8087769", "Oct-17-2020": "6"}, {"location": "Consultorio Los Lagos", "id": "827989117", "lat": "-39.8628396134", "lng": "-72.8109091501", "Oct-17-2020": "2"}, {"location": "Nail.Smoothed", "id": "496368304123342", "lat": "-39.8600913", "lng": "-72.8083205", "Oct-17-2020": "7"}, {"location": "Complejo Turistico Pud\u00fa Chilo\u00e9 Caba\u00f1as & Hostel", "id": "101988031308386", "lat": "null", "lng": "null", "Oct-17-2020": "6"}, {"location": "The City Lounge", "id": "276246936", "lat": "-39.8620890765", "lng": "-72.8155158371", "Oct-17-2020": "6"}, {"location": "Caf\u00e9 Tati Toledo", "id": "365039287650063", "lat": "-39.8632397", "lng": "-72.813827", "Oct-17-2020": "13"}, {"location": "Hospital de Los Lagos", "id": "2015525398776173", "lat": "-39.8630150263", "lng": "-72.8101181775", "Oct-17-2020": "7"}, {"location": "Playa De Co\u00f1aripe", "id": "1023113269", "lat": "-39.86331333", "lng": "-72.810865", "Oct-17-2020": "6"}, {"location": "Moda Urbana", "id": "112308363884857", "lat": "null", "lng": "null", "Oct-17-2020": "2"}, {"location": "Gimnasio Municipal Los Lagos", "id": "1714900621904132", "lat": "-39.86399512", "lng": "-72.81211742", "Oct-17-2020": "6"}, {"location": "Cafeter\u00eda Los Tranqueros", "id": "2116546451767251", "lat": "-39.8619960483", "lng": "-72.8157681227", "Oct-17-2020": "8"}, {"location": "Balneario Mehuin", "id": "948078584", "lat": "-39.8589388", "lng": "-72.8107203", "Oct-17-2020": "10"}, {"location": "Mi Casita, Mi Dormitorio, Mi Camita", "id": "347083175", "lat": "-39.8588062503", "lng": "-72.80640495", "Oct-17-2020": "3"}, {"location": "Mi Casa", "id": "962273033", "lat": "-39.8693546", "lng": "-72.8053475", "Oct-17-2020": "6"}, {"location": "Liceo Alberto Blest Gana", "id": "1583377358631550", "lat": "-39.8639945984", "lng": "-72.8034591675", "Oct-17-2020": "6"}, {"location": "Carretera 5 Sur", "id": "192106984172309", "lat": "-39.8722419968", "lng": "-72.8000943485", "Oct-17-2020": "5"}, {"location": "Rancho Santander", "id": "830311323717941", "lat": "-39.866274", "lng": "-72.8154891", "Oct-17-2020": "3"}, {"location": "Macondo Isla", "id": "567021739982093", "lat": "-39.8641052", "lng": "-72.8080444", "Oct-17-2020": "3"}, {"location": "Fogon Miramar-Sector Cha\u00f1ihue", "id": "217547362145847", "lat": null, "lng": null, "Oct-17-2020": null}, {"location": "Yo nunca nunca", "id": "104505421309928", "lat": "null", "lng": "null", "Oct-17-2020": "10"}, {"location": "Cementerio Municipal De Los Lagos", "id": "264414567770628", "lat": "-39.862633025", "lng": "-72.792998105", "Oct-17-2020": "3"}, {"location": "Servicio De Pediatria Hospital Los Lagos", "id": "345821085544344", "lat": "-39.86305753", "lng": "-72.8101184433", "Oct-17-2020": "5"}, {"location": "Encuentro del Bosque Rukachukaw", "id": "106681880812822", "lat": "null", "lng": "null", "Oct-17-2020": "5"}, {"location": "Restaurante Don Rigo", "id": "332896907285085", "lat": "-39.8611866", "lng": "-72.8159327", "Oct-17-2020": "3"}, {"location": "Las Juntas,kilme", "id": "346373762154120", "lat": "-39.8653687", "lng": "-72.8047411", "Oct-17-2020": "4"}, {"location": "Jardin Infantil Rayen Tray", "id": "457301027801823", "lat": "-39.8627787105", "lng": "-72.8075427024", "Oct-17-2020": "5"}, {"location": "Fundo la Quinta,los lagos", "id": "1030492132", "lat": "-39.8612421", "lng": "-72.8105415", "Oct-17-2020": "4"}, {"location": "Jardines Municipales Los Lagos", "id": "509321726250070", "lat": "-39.8616839204", "lng": "-72.8199896747", "Oct-17-2020": "5"}, {"location": "Centro De Eventos Sayka", "id": "1031911835", "lat": "-39.8725159", "lng": "-72.76963848", "Oct-17-2020": "5"}, {"location": "Villa Los Rios, Los Lagos", "id": "782653521", "lat": "-39.8594801667", "lng": "-72.8029450833", "Oct-17-2020": "5"}, {"location": "Hijuela N1 Bellavista", "id": "726512824026953", "lat": "-39.8699524712", "lng": "-72.7741737891", "Oct-17-2020": "5"}, {"location": "CECOSF Manuel Miranda", "id": "481896518492888", "lat": "-39.8686661076", "lng": "-72.8046303123", "Oct-17-2020": "4"}, {"location": "Fundo San Francisco, Chiloe", "id": "1888870191367941", "lat": "-39.8823999", "lng": "-72.7970799", "Oct-17-2020": "5"}, {"location": "Rave Valdivia", "id": "104270217609361", "lat": "null", "lng": "null", "Oct-17-2020": "5"}, {"location": "Lago Ri\u00f1ihue", "id": "980789698633595", "lat": "-39.8433333333", "lng": "-72.2941666667", "Oct-17-2020": "5"}, {"location": "Los Lagos City", "id": "406142912", "lat": "-39.8610753943", "lng": "-72.8099908807", "Oct-17-2020": "6"}, {"location": "Son Goku Ultra", "id": "2153447548246760", "lat": "-39.86544", "lng": "-72.80189", "Oct-17-2020": "4"}, {"location": "El trabajo dignifica", "id": "1634421709967937", "lat": "-39.85963", "lng": "-72.80246", "Oct-17-2020": "5"}, {"location": "Juntos Salud", "id": "2083620521876784", "lat": "null", "lng": "null", "Oct-17-2020": "6"}, {"location": "Isla Quihua camping rural", "id": "162529230891863", "lat": "-39.86109", "lng": "-72.80401", "Oct-17-2020": "6"}, {"location": "Quincho y caba\u00f1as Kenaby", "id": "2157752754484790", "lat": "null", "lng": "null", "Oct-17-2020": "5"}, {"location": "Huilo - Huilo", "id": "1020425939", "lat": "-39.8609378785", "lng": "-72.7944167468", "Oct-17-2020": "4"}, {"location": "Quincho de Leo", "id": "621191993", "lat": "-39.8646633333", "lng": "-72.8226083333", "Oct-17-2020": "5"}, {"location": "Cooprinsem", "id": "1012749151", "lat": "-39.8609745", "lng": "-72.7941564", "Oct-17-2020": "3"}, {"location": "Cerveza Kerberos", "id": "111250537009767", "lat": "-39.86544", "lng": "-72.80189", "Oct-17-2020": "4"}, {"location": "Fundo San Pablo", "id": "298237974145601", "lat": "-39.86423237", "lng": "-72.81289528", "Oct-17-2020": "4"}, {"location": "Constructora Megalum", "id": "193275311092372", "lat": "-39.8582344055", "lng": "-72.8092651367", "Oct-17-2020": "4"}, {"location": "Terminal Cruz del Sur Los Lagos", "id": "102777144", "lat": "-39.8620371", "lng": "-72.8116268", "Oct-17-2020": "4"}, {"location": "Cruz Del Sur, Los Lagos", "id": "125280880953430", "lat": "-39.8618732", "lng": "-72.8112662167", "Oct-17-2020": "4"}, {"location": "MateManda", "id": "1975532789348152", "lat": "-39.8602316", "lng": "-72.8086969", "Oct-17-2020": "5"}, {"location": "MY Academia", "id": "379677205961643", "lat": "-39.85953", "lng": "-72.8067433", "Oct-17-2020": "4"}, {"location": "Cementerio de Los Lagos.", "id": "243678922425018", "lat": "-39.8619491", "lng": "-72.8095461", "Oct-17-2020": "3"}, {"location": "Caba\u00f1as San Pablo", "id": "647187608640300", "lat": "-39.8605661724", "lng": "-72.7972763741", "Oct-17-2020": "3"}, {"location": "El Sur en Tus Manos", "id": "413893928985779", "lat": "-39.8614465", "lng": "-72.8105395", "Oct-17-2020": "4"}, {"location": "Terminal de buses Los Lagos", "id": "513009555882488", "lat": "-39.8619959035", "lng": "-72.8094470738", "Oct-17-2020": "5"}, {"location": "Agua purificada Santa Valentina", "id": "656086291111131", "lat": "-39.8655001759", "lng": "-72.8012927522", "Oct-17-2020": "1"}, {"location": "Lago Ranco", "id": "546658917", "lat": "-39.9209111462", "lng": "-72.7974700928", "Oct-17-2020": "4"}, {"location": "Mi Casa Pasaje Corcovado", "id": "623580279", "lat": "-39.85886", "lng": "-72.80497", "Oct-17-2020": "4"}, {"location": "Bodega Antigua", "id": "615002341", "lat": "-39.86544", "lng": "-72.8019", "Oct-17-2020": "3"}, {"location": "Ictue Castro", "id": "1045356892209680", "lat": "-39.8635408", "lng": "-72.808622", "Oct-17-2020": "4"}, {"location": "Madesur", "id": "2107279389514000", "lat": "-39.86414", "lng": "-72.82123", "Oct-17-2020": "3"}, {"location": "Tiempo de R\u00edo", "id": "972376296279923", "lat": "-39.8607366", "lng": "-72.8172348", "Oct-17-2020": "4"}, {"location": "Vergara-Garramu\u00f1o", "id": "1023786643", "lat": "-39.8592742164", "lng": "-72.8146908059", "Oct-17-2020": "1"}, {"location": "Corporaci\u00f3n Municipal de Castro", "id": "1021454962", "lat": "-42.480030896", "lng": "-73.7650890928", "Oct-17-2020": "6"}, {"location": "Pe\u00f1as De Gaete", "id": "140919523267636", "lat": "-39.8609133", "lng": "-72.8166329", "Oct-17-2020": "3"}, {"location": "Costa Terao Chilo\u00e9", "id": "100288911537895", "lat": "null", "lng": "null", "Oct-17-2020": "4"}, {"location": "Los Lagos", "id": "115178933656428", "lat": "-39.85886", "lng": "-72.80497", "Oct-17-2020": "2"}, {"location": "Estadio Municipal Los Lagos", "id": "2031689933517314", "lat": "-39.8609252228", "lng": "-72.805886823", "Oct-17-2020": "4"}, {"location": "Poblaci\u00f3n Alderete", "id": "2269059449990324", "lat": "-39.8587030876", "lng": "-72.8051135663", "Oct-17-2020": "3"}, {"location": "Copeval Los Lagos", "id": "195216377812367", "lat": "-39.8760326683", "lng": "-72.7981836717", "Oct-17-2020": "1"}, {"location": "Parcela #12 Pancul", "id": "293917340735205", "lat": "-39.84559951", "lng": "-72.81013952", "Oct-17-2020": "2"}, {"location": "Donde Los Viejos En El Sur!!!", "id": "577228189", "lat": "-39.85260485", "lng": "-72.7805614333", "Oct-17-2020": "3"}, {"location": "Fundo Los Casta\u00f1os", "id": "1018830738", "lat": "-39.860615919", "lng": "-72.8040019947", "Oct-17-2020": "2"}, {"location": "Cooprinsem Los Lagos", "id": "156774441081637", "lat": "-39.8612616879", "lng": "-72.7942867445", "Oct-17-2020": "0"}, {"location": "Forjadores Ambientales Liceo Alberto Blest Gana", "id": "277048602666410", "lat": "-39.86544", "lng": "-72.8019", "Oct-17-2020": "2"}, {"location": "Daem Los Lagos", "id": "1016733463", "lat": "-39.8643552537", "lng": "-72.8029464365", "Oct-17-2020": "3"}, {"location": "Quento", "id": "172033282887071", "lat": "-39.8642899", "lng": "-72.80811", "Oct-17-2020": "2"}, {"location": "Casa Familia Flores Carrasco", "id": "256967717794411", "lat": "-39.8525673", "lng": "-72.7891545", "Oct-17-2020": "4"}, {"location": "Colectivo Cultural Wazalafk\u00e9n", "id": "304262223726224", "lat": "null", "lng": "null", "Oct-17-2020": "4"}, {"location": "El Vagon", "id": "110724153766834", "lat": null, "lng": null, "Oct-17-2020": null}, {"location": "Calbuco", "id": "239224833178023", "lat": "-39.86109", "lng": "-72.80401", "Oct-17-2020": "2"}, {"location": "Atrapasue\u00f1os Los Lagos", "id": "1025031998", "lat": null, "lng": null, "Oct-17-2020": null}, {"location": "BANDAX SUR EIRL", "id": "209493415759516", "lat": "-39.85886", "lng": "-72.7992401", "Oct-17-2020": "3"}, {"location": "Bocados", "id": "267549428", "lat": "-39.8621365337", "lng": "-72.8118459204", "Oct-17-2020": "2"}, {"location": "Cesfam Los Lagos", "id": "857278498", "lat": "-39.8628289368", "lng": "-72.8111769988", "Oct-17-2020": "2"}, {"location": "Puerto Varas", "id": "875662903", "lat": "-39.87656", "lng": "-72.79888", "Oct-17-2020": "4"}, {"location": "Juzgado De Letras De Los Lagos", "id": "348114962439183", "lat": "-39.8629968641", "lng": "-72.8163601722", "Oct-17-2020": "2"}, {"location": "CESFAM Los Lagos", "id": "337460697014646", "lat": "-39.86304015", "lng": "-72.81142311", "Oct-17-2020": "3"}, {"location": "Masion Castillo Chepo", "id": "336340906505823", "lat": "-39.8635583", "lng": "-72.8190417", "Oct-17-2020": "3"}, {"location": "Mar", "id": "245756438893152", "lat": "-39.86544", "lng": "-72.80189", "Oct-17-2020": "3"}, {"location": "Bulnes #225 Los Lagos", "id": "1018151796", "lat": "-39.86294", "lng": "-72.8036", "Oct-17-2020": "3"}, {"location": "Cementerio Municipal Los Lagos", "id": "571369116", "lat": "-39.8619987583", "lng": "-72.7930495609", "Oct-17-2020": "1"}, {"location": "Camping la granjita", "id": "434080186650044", "lat": "-39.8613576", "lng": "-72.8100876", "Oct-17-2020": "2"}, {"location": "Centro Dental San Juan", "id": "348372345643641", "lat": "-39.8651567", "lng": "-72.8076795", "Oct-17-2020": "3"}, {"location": "Klubba Mostras", "id": "112586363600815", "lat": "null", "lng": "null", "Oct-17-2020": "6"}, {"location": "Mi Casa", "id": "482082658579190", "lat": "-39.8612866", "lng": "-72.815472", "Oct-17-2020": "1"}, {"location": "El Toky", "id": "102730247968225", "lat": "-39.85882", "lng": "-72.8048699", "Oct-17-2020": "1"}, {"location": "Beergarden Sayka", "id": "428539797703819", "lat": "-39.8720156", "lng": "-72.7711855", "Oct-17-2020": "7"}, {"location": "Los Lagos Plaza Aderete", "id": "910024973", "lat": "-39.8596182", "lng": "-72.8069612", "Oct-17-2020": "3"}, {"location": "Pullman Bus", "id": "1015773960", "lat": "-39.88509412", "lng": "-72.79634093", "Oct-17-2020": "3"}, {"location": "Caba\u00f1as Cancuras", "id": "563212521", "lat": "-39.8726339266", "lng": "-72.7836418804", "Oct-17-2020": "3"}, {"location": "Mi Casa Los Lagos", "id": "700646206715246", "lat": "-39.8611948982", "lng": "-72.8084121645", "Oct-17-2020": "3"}, {"location": "Casa De Mis Papis", "id": "781063512", "lat": "-39.8641003", "lng": "-72.815781", "Oct-17-2020": "2"}, {"location": "Poblaci\u00f3n Alderete, Centro Comunitario", "id": "1015314605", "lat": "-39.8583696543", "lng": "-72.805826105", "Oct-17-2020": "5"}, {"location": "Indomitus", "id": "131903007450057", "lat": "-39.864919536", "lng": "-72.8185844421", "Oct-17-2020": "2"}, {"location": "Arcoiris", "id": "581443056", "lat": "-39.86217", "lng": "-72.81782", "Oct-17-2020": "3"}, {"location": "Paillaco", "id": "394756501", "lat": "-39.861373", "lng": "-72.8102268", "Oct-17-2020": "3"}, {"location": "A.B.G", "id": "674943080", "lat": "-39.86763634", "lng": "-72.8147712", "Oct-17-2020": "4"}, {"location": "Club JDM Society", "id": "378289202713987", "lat": "null", "lng": "null", "Oct-17-2020": "2"}, {"location": "Escuela Patrimonial de Artesan\u00eda y Oficios de Lingue", "id": "817500118325904", "lat": "-39.86433", "lng": "-72.8081799", "Oct-17-2020": "4"}, {"location": "Estadio LOS LAGOS", "id": "1025567248", "lat": "-39.86145667", "lng": "-72.80454167", "Oct-17-2020": "4"}, {"location": "Hospital Los Lagos", "id": "1502642689880046", "lat": "-39.8629841143", "lng": "-72.8101514429", "Oct-17-2020": "4"}, {"location": "BancoEstado", "id": "723930934609695", "lat": "-39.8594713925", "lng": "-72.8149002777", "Oct-17-2020": "3"}, {"location": "Constructora y Comercial Tecnoalum Ltda", "id": "823011137732563", "lat": "-39.859095908", "lng": "-72.7989562345", "Oct-17-2020": "3"}, {"location": "A Valdivia", "id": "960932532", "lat": "-39.8600376", "lng": "-72.8042868", "Oct-17-2020": "2"}, {"location": "Cerca De Bahia San Pedro", "id": "1028868522", "lat": "-39.86007", "lng": "-72.8102", "Oct-17-2020": "2"}, {"location": "Terpel", "id": "366572990088119", "lat": "-39.8547732643", "lng": "-72.808971405", "Oct-17-2020": "1"}, {"location": "Hoja", "id": "113870190246402", "lat": "-39.85882", "lng": "-72.80487", "Oct-17-2020": "6"}, {"location": "Pcx Los Lagos", "id": "179385215448666", "lat": "-39.8611743103", "lng": "-72.8103250283", "Oct-17-2020": "4"}, {"location": "Escuela Francia Los Lagos", "id": "1526485670987635", "lat": "-39.864936006", "lng": "-72.8043794632", "Oct-17-2020": "3"}, {"location": "Es Tiempo", "id": "105372064537188", "lat": "null", "lng": "null", "Oct-17-2020": "4"}, {"location": "Producci\u00f3n Visual", "id": "2071225819818086", "lat": "null", "lng": "null", "Oct-17-2020": "2"}, {"location": "Juzgado De Garantia De Los Lagos", "id": "200928846706110", "lat": "-39.8642350231", "lng": "-72.8157731479", "Oct-17-2020": "3"}, {"location": "Fundo Eduvigis", "id": "1024902237", "lat": "-39.89330625", "lng": "-72.77777125", "Oct-17-2020": "2"}, {"location": "El Castillo de Sebita", "id": "213696102381014", "lat": "-39.866780621", "lng": "-72.8125119209", "Oct-17-2020": "8"}, {"location": "8vo B - 1997 - Escuela Efra\u00edn Campana Silva, Osorno", "id": "120247076493", "lat": "-39.86414", "lng": "-72.82123", "Oct-17-2020": "3"}, {"location": "El Tarot C\u00f3smico.", "id": "107887534262681", "lat": "null", "lng": "null", "Oct-17-2020": "2"}, {"location": "11 de Septiembre Los Lagos Region de Los Rios", "id": "1387571188131915", "lat": "-39.86074667", "lng": "-72.80678667", "Oct-17-2020": "2"}, {"location": "Terminal Tur Bus, Los Lagos", "id": "58595927", "lat": "-39.8611519", "lng": "-72.80992144", "Oct-17-2020": "2"}, {"location": "Kallfu Pewma", "id": "1397315627026460", "lat": "-39.85986", "lng": "-72.79659", "Oct-17-2020": "5"}, {"location": "Trawun", "id": "109773267158252", "lat": "-39.85882", "lng": "-72.80487", "Oct-17-2020": "1"}, {"location": "Restaurat La Plaza Vieja", "id": "1009282666", "lat": "-39.8627452", "lng": "-72.8163569", "Oct-17-2020": "2"}, {"location": "Patagonian Insular", "id": "617702985", "lat": null, "lng": null, "Oct-17-2020": null}, {"location": "Clinica Rio Dental Los Lagos", "id": "466762957171859", "lat": "-39.8630125", "lng": "-72.8136375", "Oct-17-2020": "3"}, {"location": "Dekar", "id": "47733820", "lat": "-39.862591", "lng": "-72.813465", "Oct-17-2020": "2"}, {"location": "Radio Fm Luz", "id": "1025353121", "lat": "-39.8714102", "lng": "-72.7982874", "Oct-17-2020": "2"}, {"location": "Lejos", "id": "248572498533441", "lat": "-39.8631392667", "lng": "-72.8129089333", "Oct-17-2020": "2"}, {"location": "Ferosor Los Lagos", "id": "280447468784115", "lat": "-39.8628465878", "lng": "-72.7887592", "Oct-17-2020": "3"}, {"location": "MF Ingenier\u00eda y Construcci\u00f3n", "id": "113376660331207", "lat": "-39.85882", "lng": "-72.80487", "Oct-17-2020": "0"}, {"location": "Casa de Inita, Quinchilca", "id": "292543004127830", "lat": "-39.86735", "lng": "-72.79997", "Oct-17-2020": "2"}, {"location": "Dignidad para todos", "id": "109736580654502", "lat": "-39.85882", "lng": "-72.80487", "Oct-17-2020": "2"}, {"location": "Las Pe\u00f1as Rio San Pedro", "id": "1033172425", "lat": "-39.8548375322", "lng": "-72.7916527492", "Oct-17-2020": "2"}, {"location": "Casa De Mis Papis", "id": "1024989730", "lat": "-39.8598088014", "lng": "-72.8143308288", "Oct-17-2020": "2"}, {"location": "Estacion Los Lagos, Los Rios, Chile", "id": "1032962694", "lat": "-39.86304653", "lng": "-72.81702833", "Oct-17-2020": "0"}, {"location": "Rinc\u00f3n De La Nieve Turismo Rural Palena", "id": "426485611049826", "lat": "-39.86005", "lng": "-72.80234", "Oct-17-2020": "2"}, {"location": "Vuelta a Chilo\u00e9", "id": "430961767110863", "lat": "-39.8652111", "lng": "-72.8076446", "Oct-17-2020": "3"}, {"location": "Cancha de carrera cruce cardenas", "id": "373668686527216", "lat": "-39.86107", "lng": "-72.80397", "Oct-17-2020": "4"}, {"location": "Plasa De Los Lagos", "id": "1025040525", "lat": "-39.8620474572", "lng": "-72.8161045723", "Oct-17-2020": "3"}, {"location": "Casino Valdivia", "id": "931155886", "lat": "-39.8670302", "lng": "-72.8030219", "Oct-17-2020": "2"}, {"location": "Osorno", "id": "1024140277", "lat": "-39.8621061", "lng": "-72.8164378", "Oct-17-2020": "1"}, {"location": "Salon Auditorio", "id": "424871724308548", "lat": "-39.8629101301", "lng": "-72.8160633314", "Oct-17-2020": "3"}, {"location": "Escuela Francia Los Lagos", "id": "736498655", "lat": "-39.8604190648", "lng": "-72.8006053931", "Oct-17-2020": "2"}, {"location": "Region de Los Lagos, Los Lagos, Chile", "id": "1012047991", "lat": "-39.869143104", "lng": "-72.803395771", "Oct-17-2020": "2"}, {"location": "Pancul, Regi\u00f3n de Los R\u00edos.", "id": "383407935025184", "lat": "-39.85918", "lng": "-72.79684", "Oct-17-2020": "2"}, {"location": "Los Lagosgang", "id": "600653649980681", "lat": "-39.8655278558", "lng": "-72.8061539112", "Oct-17-2020": "2"}, {"location": "En La Plaza De Los Lagos...!!!", "id": "378244572273192", "lat": "-39.8632663534", "lng": "-72.812915383", "Oct-17-2020": "1"}, {"location": "Los Lagos Pichihue", "id": "615641025", "lat": "-39.85867205", "lng": "-72.8042795833", "Oct-17-2020": "2"}, {"location": "En El Campo", "id": "637673709591132", "lat": "-39.8526337564", "lng": "-72.7984626954", "Oct-17-2020": "2"}, {"location": "Cascadas Del Cerro", "id": "1032975010", "lat": "-39.8608938", "lng": "-72.8086057", "Oct-17-2020": "1"}, {"location": "Juzgado de Polic\u00eda Local de Los Lagos", "id": "114767146826289", "lat": "-39.8619388545", "lng": "-72.8116839075", "Oct-17-2020": "0"}, {"location": "Colegio Especial Celipras", "id": "1031600486", "lat": "-39.8638746", "lng": "-72.8187982", "Oct-17-2020": "2"}, {"location": "Venta/permutas/juegos/consolas/ps/wii/xbox-etc-Puerto montt", "id": "425596770955159", "lat": "-39.86544", "lng": "-72.80189", "Oct-17-2020": "2"}, {"location": "Novokine", "id": "1204398976294749", "lat": "-39.8646216", "lng": "-72.8077277", "Oct-17-2020": "2"}, {"location": "Anthonys Beauty Spa", "id": "357357274912658", "lat": "-39.86071", "lng": "-72.80429", "Oct-17-2020": "0"}, {"location": "Escuela Particular Patagonia", "id": "1446661592317459", "lat": "-39.85886", "lng": "-72.80497", "Oct-17-2020": "1"}, {"location": "Plaza Nueva Los Lagos", "id": "1024531371", "lat": "-39.8634249", "lng": "-72.8123783", "Oct-17-2020": "2"}, {"location": "Los Lagos", "id": "116991725166360", "lat": "-39.9168173616", "lng": "-72.7972447872", "Oct-17-2020": "2"}, {"location": "Manuel rodriguez", "id": "590188364423936", "lat": "-42.4745906396", "lng": "-73.76854787", "Oct-17-2020": "3"}, {"location": "BLACK STARS", "id": "108532820849210", "lat": "-39.85882", "lng": "-72.80487", "Oct-17-2020": "2"}, {"location": "C.EE ABG 2017", "id": "1316865518340213", "lat": "-39.86521", "lng": "-72.80358", "Oct-17-2020": "2"}, {"location": "Cmok", "id": "111831733896024", "lat": "-39.85882", "lng": "-72.80487", "Oct-17-2020": "2"}, {"location": "En La Luna", "id": "117930068304969", "lat": "-39.8636721", "lng": "-72.8126782", "Oct-17-2020": "2"}, {"location": "Hotel Los Nogales Santiago", "id": "1016587719", "lat": "-39.8517360094", "lng": "-72.8059490738", "Oct-17-2020": "2"}, {"location": "Mi Cama", "id": "139431872930601", "lat": "-39.8588116", "lng": "-72.8079405", "Oct-17-2020": "2"}, {"location": "Nutricionista", "id": "2095225664056869", "lat": "-39.8613614", "lng": "-72.8102126", "Oct-17-2020": "2"}, {"location": "Club Motociclista U\u00f1as Sucias", "id": "2230057297237279", "lat": "-39.86107", "lng": "-72.80397", "Oct-17-2020": "3"}, {"location": "Avicoberries Pucoihue", "id": "914375831972137", "lat": "-39.8638395117", "lng": "-72.8011921525", "Oct-17-2020": "2"}, {"location": "Restaurant Los Tranqueros", "id": "392724781", "lat": "-39.8621416806", "lng": "-72.815550733", "Oct-17-2020": "3"}, {"location": "Cementerio", "id": "962133950843393", "lat": "-39.861252126", "lng": "-72.7940395702", "Oct-17-2020": "2"}, {"location": "Club De Rayuela Quinchilca", "id": "1623586491218925", "lat": "-39.8579242314", "lng": "-72.8073031549", "Oct-17-2020": "2"}, {"location": "Aires del Sur", "id": "2232741537055213", "lat": "-39.86544", "lng": "-72.80189", "Oct-17-2020": "1"}, {"location": "La Ultima parte donde hay que estar", "id": "1765415883762305", "lat": "-39.860731", "lng": "-72.819464", "Oct-17-2020": "1"}, {"location": "Restorant El Array\u00e1n", "id": "1623604277902783", "lat": "null", "lng": "null", "Oct-17-2020": "3"}, {"location": "Tur Bus Los Lagos", "id": "2099878506896272", "lat": "-39.8611292751", "lng": "-72.8104091498", "Oct-17-2020": "1"}, {"location": "Estadio Municipal Panguipulli", "id": "1025785426", "lat": "-39.8597359216", "lng": "-72.8064890206", "Oct-17-2020": "1"}, {"location": "Refugio de Los Palafitos", "id": "211647245625825", "lat": "-39.86433", "lng": "-72.8081799", "Oct-17-2020": "0"}, {"location": "Centro De Eventos Sayka", "id": "1666299866976585", "lat": "-39.8714698598", "lng": "-72.771310479", "Oct-17-2020": "1"}, {"location": "Brewpub Sayka", "id": "2528959650664822", "lat": "-39.8723740486", "lng": "-72.7703311943", "Oct-17-2020": "4"}, {"location": "Pintandoen chiloe", "id": "1736938719899214", "lat": "-39.86433", "lng": "-72.8081799", "Oct-17-2020": "1"}, {"location": "Salto De La Princesa, Sector Anticura", "id": "1830187913875087", "lat": "-39.85886", "lng": "-72.80497", "Oct-17-2020": "0"}, {"location": "The City bar", "id": "2046393978786512", "lat": "-39.8620432405", "lng": "-72.8155234748", "Oct-17-2020": "0"}, {"location": "El ropero de Natalie", "id": "175569862582561", "lat": "-39.86433", "lng": "-72.8081799", "Oct-17-2020": "0"}, {"location": "De la Mota Growshop", "id": "189649698327118", "lat": "-39.85872", "lng": "-72.80455", "Oct-17-2020": "1"}, {"location": "Consultorio Sat\u00e1nico Los Lagos", "id": "1027226996", "lat": "-39.8627833251", "lng": "-72.8113927334", "Oct-17-2020": "2"}, {"location": "Sector Ciruelos", "id": "206230092863780", "lat": "-39.86635", "lng": "-72.80457", "Oct-17-2020": "1"}, {"location": "Los Lagos, Ri\u00f1ihue", "id": "185079728304960", "lat": "-39.8624185", "lng": "-72.808258", "Oct-17-2020": "1"}, {"location": "La pic\u00e1 de la T\u00eda Gladys", "id": "1867910190171000", "lat": "-39.85886", "lng": "-72.80497", "Oct-17-2020": "1"}, {"location": "Terrazas Tiempo Discotheque", "id": "142838416377429", "lat": "-39.8631844458", "lng": "-72.816787542", "Oct-17-2020": "1"}, {"location": "Reino Unido", "id": "149310628545884", "lat": "-39.8602055", "lng": "-72.808508", "Oct-17-2020": "1"}, {"location": "Puerto Llifen", "id": "183526671786589", "lat": "-39.8615570527", "lng": "-72.8101935573", "Oct-17-2020": "1"}, {"location": "The City Multiespacio Los Lagos", "id": "617334231", "lat": "-39.8594017", "lng": "-72.8143383", "Oct-17-2020": "1"}, {"location": "Fornite", "id": "113874940168082", "lat": "null", "lng": "null", "Oct-17-2020": "1"}, {"location": "Salon Parroquial Los lagos", "id": "142491942937434", "lat": "-39.8643133956", "lng": "-72.8122024218", "Oct-17-2020": "1"}, {"location": "En Mi Casa", "id": "256879707777752", "lat": "-39.8610654472", "lng": "-72.8064608574", "Oct-17-2020": "1"}, {"location": "Tur Bus Los Lagos", "id": "236180793064090", "lat": "-39.8607782547", "lng": "-72.810199562", "Oct-17-2020": "1"}, {"location": "Estaci\u00f3n Los Lagos", "id": "209434952592625", "lat": "-39.86335", "lng": "-72.817726", "Oct-17-2020": "2"}, {"location": "Supermercato del Porto", "id": "178017542366931", "lat": "null", "lng": "null", "Oct-17-2020": "1"}, {"location": "Banco Estado Los Lagos", "id": "147082498771779", "lat": "-39.86205551", "lng": "-72.815309695", "Oct-17-2020": "1"}, {"location": "Stragos Restobar", "id": "142409455921353", "lat": "-39.862151017", "lng": "-72.8176964693", "Oct-17-2020": "1"}, {"location": "Pequitas", "id": "102346231550051", "lat": "-39.85882", "lng": "-72.80487", "Oct-17-2020": "1"}, {"location": "Caba\u00f1as Los Lagos", "id": "1013115529", "lat": "-39.8677988", "lng": "-72.79778134", "Oct-17-2020": "1"}, {"location": "Pizza Los Lagos", "id": "310810615934210", "lat": "-39.86933", "lng": "-72.80363", "Oct-17-2020": "2"}, {"location": "DrinkHome", "id": "267344233636401", "lat": null, "lng": null, "Oct-17-2020": null}, {"location": "Tres Vueltas Lodge", "id": "336531929846583", "lat": "-39.8616031", "lng": "-72.8104329", "Oct-17-2020": "1"}, {"location": "Mx Valdivia", "id": "247805155377803", "lat": "-39.8696694399", "lng": "-72.8059753566", "Oct-17-2020": "1"}, {"location": "Lago Ranco", "id": "1017425869", "lat": "-39.8625979", "lng": "-72.8070854", "Oct-17-2020": "1"}, {"location": "Los Lagos Chejo Dubreuil", "id": "1030669488", "lat": "-39.8622295", "lng": "-72.8146817", "Oct-17-2020": "1"}, {"location": "Escuela Nueva Collilelfu", "id": "280013605967094", "lat": "-39.866817", "lng": "-72.817303", "Oct-17-2020": "2"}, {"location": "casa", "id": "248810648499399", "lat": "-39.86414", "lng": "-72.82123", "Oct-17-2020": "1"}, {"location": "Casona Quilapulli Lodge - Panguipulli", "id": "206871376875479", "lat": "-39.86956", "lng": "-72.80405", "Oct-17-2020": "2"}, {"location": "En Mi Casa - Los Lagos", "id": "231594033662949", "lat": "-39.8610812", "lng": "-72.8208835", "Oct-17-2020": "1"}, {"location": "Mangussar", "id": "284637975041996", "lat": "-39.8588486", "lng": "-72.8049622", "Oct-17-2020": "1"}, {"location": "Balmaceda Sur 41", "id": "114390976937606", "lat": "-39.8729080713", "lng": "-72.8008573476", "Oct-17-2020": "1"}, {"location": "Cecosf Los Lagos", "id": "1020596055", "lat": "-39.8686222", "lng": "-72.8049279", "Oct-17-2020": "1"}, {"location": "NODO", "id": "104483357597930", "lat": "null", "lng": "null", "Oct-17-2020": "0"}, {"location": "Pob. Los Pinos, Los Lagos", "id": "1014855023", "lat": "-39.8701742", "lng": "-72.8024065", "Oct-17-2020": "1"}, {"location": "Pub the City", "id": "559237699", "lat": "-39.8621775222", "lng": "-72.8157742363", "Oct-17-2020": "1"}, {"location": "Fundo Collico", "id": "183827291758573", "lat": "-39.86355988", "lng": "-72.82239116", "Oct-17-2020": "1"}, {"location": "Mercado Particular", "id": "336992910500315", "lat": "null", "lng": "null", "Oct-17-2020": "1"}, {"location": "Yogapersonal", "id": "239299336116038", "lat": "-39.8611148599", "lng": "-72.7975344658", "Oct-17-2020": "2"}, {"location": "Bocados", "id": "300149577441938", "lat": "-39.8618701", "lng": "-72.811873", "Oct-17-2020": "2"}, {"location": "Sayka.cl", "id": "264786736957022", "lat": "-39.8713602", "lng": "-72.7983644", "Oct-17-2020": "1"}, {"location": "Base Samu Los Lagos", "id": "298173510902520", "lat": "-39.8625424", "lng": "-72.8099182", "Oct-17-2020": "1"}, {"location": "Caf\u00e9 Laguino 2020", "id": "101870518373174", "lat": "-39.8595298293", "lng": "-72.8072958642", "Oct-17-2020": "0"}, {"location": "Casino Valdivia", "id": "1007922029", "lat": "-39.8660136", "lng": "-72.8011279", "Oct-17-2020": "1"}, {"location": "Estaci\u00f3n Collilelfu", "id": "336030913686722", "lat": "-39.862677", "lng": "-72.811084", "Oct-17-2020": "2"}, {"location": "Bah\u00eda Veleros Restaurant", "id": "307505115940358", "lat": "-39.86107", "lng": "-72.80397", "Oct-17-2020": "2"}, {"location": "Ruta 5 Sur Km 834", "id": "395272513911195", "lat": "-39.8633878914", "lng": "-72.8024146861", "Oct-17-2020": "2"}, {"location": "Caba\u00f1as Cancura, Los Lagos, Region De Los R\u00edos", "id": "441825562572512", "lat": "-39.91688", "lng": "-72.77929", "Oct-17-2020": "1"}, {"location": "Hotel chilhue", "id": "366263960792371", "lat": "-39.8641117", "lng": "-72.8080474", "Oct-17-2020": "1"}, {"location": "Eco-hostal", "id": "287183101729500", "lat": "-39.8823999", "lng": "-72.7970799", "Oct-17-2020": "1"}, {"location": "El Hualve", "id": "243113356523329", "lat": "-39.86115", "lng": "-72.81488", "Oct-17-2020": "1"}, {"location": "Constructora Casas Quinchilca", "id": "231724180608846", "lat": "-39.862053086", "lng": "-72.811563781", "Oct-17-2020": "1"}, {"location": "Los Lagos Comunica TV", "id": "103575747855014", "lat": "-39.8665335772", "lng": "-72.8043365479", "Oct-17-2020": "2"}, {"location": "El Baj\u00f3n del Terry", "id": "110859543745535", "lat": "-39.86416", "lng": "-72.8212099", "Oct-17-2020": "1"}, {"location": "Turismo La familia Caleta Inio", "id": "113781413397442", "lat": "-39.85882", "lng": "-72.8048699", "Oct-17-2020": "1"}, {"location": "Buzos Emeve Chile", "id": "121624108468681", "lat": null, "lng": null, "Oct-17-2020": null}, {"location": "Caba\u00f1as Los Suizo", "id": "1015727455", "lat": "-39.8600112997", "lng": "-72.8090786934", "Oct-17-2020": "1"}, {"location": "Las Huellas casa papi Chochi", "id": "458815677942997", "lat": "-39.8578997977", "lng": "-72.7993233497", "Oct-17-2020": "1"}, {"location": "Parque Harnecker", "id": "449585241724018", "lat": null, "lng": null, "Oct-17-2020": null}, {"location": "La CASA DEL JEANS", "id": "366899750539672", "lat": "null", "lng": "null", "Oct-17-2020": "1"}, {"location": "Puerto Escondido Castro", "id": "274851053091171", "lat": "-39.861763544", "lng": "-72.809938146", "Oct-17-2020": "1"}, {"location": "Lote 3, Parcela 17, Los Lagos. XIV Regi\u00f3n De Los R\u00edos.", "id": "224824837562431", "lat": "-39.8525327501", "lng": "-72.789148625", "Oct-17-2020": "1"}, {"location": "Ale Alejandrita", "id": "291031181589416", "lat": "-39.86107", "lng": "-72.80397", "Oct-17-2020": "0"}, {"location": "Pasarela Los Lagos Ruta 5 Sur", "id": "429970433687629", "lat": "-39.8656012", "lng": "-72.8020763", "Oct-17-2020": "2"}, {"location": "Autos robados en Valdivia", "id": "107958120922432", "lat": "-39.85882", "lng": "-72.80487", "Oct-17-2020": "1"}, {"location": "Oficinita Los Lagos", "id": "581013301978537", "lat": "-39.852329", "lng": "-72.801826", "Oct-17-2020": "1"}, {"location": "Bella Bella", "id": "484846655612439", "lat": "-39.86544", "lng": "-72.80189", "Oct-17-2020": "1"}, {"location": "Banco Estado", "id": "954061199", "lat": "-39.8636177778", "lng": "-72.8097777778", "Oct-17-2020": "1"}, {"location": "estadio. Municipal en Los Lagos", "id": "312413360", "lat": "-39.8607155", "lng": "-72.8063166", "Oct-17-2020": "1"}, {"location": "Cervecer\u00eda Saika Los Lagos", "id": "581710863", "lat": "-39.87209333", "lng": "-72.77043333", "Oct-17-2020": "1"}, {"location": "Casa De Los Salazares", "id": "899572574", "lat": "-42.414901", "lng": "-73.7198632", "Oct-17-2020": "1"}, {"location": "Aldea Los Jardines Osorno", "id": "551106051634140", "lat": "-39.86414", "lng": "-72.82123", "Oct-17-2020": "2"}, {"location": "En Mansion Castillo Chepo", "id": "575774492474500", "lat": "-39.8636316", "lng": "-72.8190723", "Oct-17-2020": "1"}, {"location": "Mancion Castillo Mora", "id": "540293939372676", "lat": "-39.8593928", "lng": "-72.8156489", "Oct-17-2020": "1"}, {"location": "Mi Casita! -Los Laguitos", "id": "1028636592", "lat": "-39.8616835", "lng": "-72.8044758", "Oct-17-2020": "1"}, {"location": "AccePhone LosLagos", "id": "434122640295475", "lat": "-39.8603499", "lng": "-72.80053", "Oct-17-2020": "1"}, {"location": "La RucaBar", "id": "338840866692591", "lat": "-39.8621408045", "lng": "-72.8150964696", "Oct-17-2020": "1"}, {"location": "Huilliches", "id": "614681305224412", "lat": "-39.8826873167", "lng": "-72.7944407167", "Oct-17-2020": "1"}, {"location": "Fernilove", "id": "518480394976217", "lat": "-39.86433", "lng": "-72.8081799", "Oct-17-2020": "1"}, {"location": "Bridgestone Firestone", "id": "615984715079575", "lat": "-42.46838245", "lng": "-73.7660060501", "Oct-17-2020": "1"}, {"location": "Provisiones y Deposito de Licores Quinchilca", "id": "598293257041124", "lat": "-39.8597684", "lng": "-72.807328", "Oct-17-2020": "1"}, {"location": "Somos Familia Constructores", "id": "307499699582256", "lat": "-39.85998", "lng": "-72.80023", "Oct-17-2020": "1"}, {"location": "Sushi Record Delivery", "id": "799624563741894", "lat": "-39.86153", "lng": "-72.80426", "Oct-17-2020": "2"}, {"location": "Los Pinos, La pobla", "id": "108201607219858", "lat": "-39.8672118331", "lng": "-72.8037546101", "Oct-17-2020": "0"}, {"location": "En Casa De Mis Papis", "id": "1020463374", "lat": "-39.8597431612", "lng": "-72.8143585425", "Oct-17-2020": "1"}, {"location": "Planta Soprole Los Lagos", "id": "1033718812", "lat": "-39.85861762", "lng": "-72.79589756", "Oct-17-2020": "1"}, {"location": "Botiller\u00eda Oh", "id": "558060418064745", "lat": "-39.8610928", "lng": "-72.8160481", "Oct-17-2020": "1"}, {"location": "Si te gusta, entonces \u00fasalo", "id": "112899660508832", "lat": "-39.85882", "lng": "-72.80487", "Oct-17-2020": "1"}, {"location": "Mar y Brasas", "id": "100718324921864", "lat": null, "lng": null, "Oct-17-2020": null}, {"location": "GODAH", "id": "752692625078432", "lat": "-39.86433", "lng": "-72.8081799", "Oct-17-2020": "2"}, {"location": "Lo mejor de Osorno", "id": "36359821496", "lat": "-39.86071", "lng": "-72.80429", "Oct-17-2020": "1"}, {"location": "SuiteNatural", "id": "113287923717262", "lat": "null", "lng": "null", "Oct-17-2020": "0"}, {"location": "Medialuna Fundo Collico, Los Lagos", "id": "513659115483052", "lat": "-39.8875494395", "lng": "-72.8009484988", "Oct-17-2020": "3"}, {"location": "Primera Compa\u00f1ia Los Lagos", "id": "1226819264114985", "lat": "-39.8615499676", "lng": "-72.8160418458", "Oct-17-2020": "1"}, {"location": "Salon de belleza piedra luna", "id": "1348648528562251", "lat": "-39.86109", "lng": "-72.80401", "Oct-17-2020": "0"}, {"location": "Balmaceda Sur 041 -b", "id": "529043920816224", "lat": "-39.86193935", "lng": "-72.80401085", "Oct-17-2020": "0"}, {"location": "HINDU Fashion", "id": "1192421440775172", "lat": "-39.8588486", "lng": "-72.8049622", "Oct-17-2020": "1"}, {"location": "FM Luz 88.3", "id": "114847305270529", "lat": "-39.8616293646", "lng": "-72.8099111374", "Oct-17-2020": "0"}, {"location": "Soprole Los Lagos", "id": "1022833005", "lat": "-39.8585264992", "lng": "-72.7962382606", "Oct-17-2020": "1"}, {"location": "Mansion Studer Gormaz", "id": "1005683719", "lat": "-39.8639404", "lng": "-72.8102284", "Oct-17-2020": "1"}, {"location": "Temsa", "id": "1004549145", "lat": "-39.8706666667", "lng": "-72.796915", "Oct-17-2020": "1"}, {"location": "Mi Casa", "id": "1008975428", "lat": "-39.86144", "lng": "-72.80434", "Oct-17-2020": "1"}, {"location": "Amarti", "id": "769716223234725", "lat": "-39.86933", "lng": "-72.80363", "Oct-17-2020": "1"}, {"location": "Villa Los Alcaldes Los Lagos", "id": "589729184492177", "lat": "-39.8606874514", "lng": "-72.8032981977", "Oct-17-2020": "0"}, {"location": "Orilla Del Rio Calle Calle Ciuda De Los Lagos", "id": "1515725258754631", "lat": "-39.8650147", "lng": "-72.8046144", "Oct-17-2020": "2"}, {"location": "Sala Club El Morro, Los Lagos.", "id": "1202200676519749", "lat": "-39.85875", "lng": "-72.80459", "Oct-17-2020": "1"}, {"location": "Colegio Juan Pablo II de Los Lagos", "id": "1017198721624190", "lat": "-39.8684616", "lng": "-72.8082199", "Oct-17-2020": "1"}, {"location": "Compra y Venta Los Lagos", "id": "1267158213312744", "lat": "-39.8586277066", "lng": "-72.8038644791", "Oct-17-2020": "0"}, {"location": "Chilo\u00e9 Sustentable yunta", "id": "694205097385766", "lat": null, "lng": null, "Oct-17-2020": null}, {"location": "Comidas Caseras La Chichi", "id": "1337475426291529", "lat": null, "lng": null, "Oct-17-2020": null}, {"location": "El Mosqueto", "id": "100672881499871", "lat": "-39.85886", "lng": "-72.80497", "Oct-17-2020": "1"}, {"location": "Chilo\u00e9 Verde", "id": "110918142921707", "lat": "-39.86437", "lng": "-72.80811", "Oct-17-2020": "1"}, {"location": "Coligual Esperanza", "id": "598059893858603", "lat": "-39.86897", "lng": "-72.80342", "Oct-17-2020": "0"}, {"location": "Sport Center Los Lagos", "id": "916240321785626", "lat": null, "lng": null, "Oct-17-2020": null}, {"location": "Eco Terrazas", "id": "1085374388140491", "lat": "-39.8662491", "lng": "-72.8043671", "Oct-17-2020": "1"}, {"location": "Estero Hui\u00f1ahui\u00f1a", "id": "1655451088049483", "lat": "-39.86972", "lng": "-72.81135", "Oct-17-2020": "0"}, {"location": "Nuestra Casita Los Lagos Region Los Rios", "id": "1006274902903578", "lat": "-39.8675897", "lng": "-72.8118218", "Oct-17-2020": "1"}, {"location": "Chilo\u00e9 bilingue", "id": "1491171687862682", "lat": "-39.8612197", "lng": "-72.8101745", "Oct-17-2020": "1"}, {"location": "Habla Ingl\u00e9s", "id": "104280867941133", "lat": "null", "lng": "null", "Oct-17-2020": "1"}, {"location": "Poblacion Alderete", "id": "148850939164992", "lat": "-39.85886", "lng": "-72.80497", "Oct-17-2020": "0"}, {"location": "Mi Cama", "id": "1008235707", "lat": "-39.86360588", "lng": "-72.82238799", "Oct-17-2020": "1"}, {"location": "strike sushi-bar Valdivia", "id": "1562228434029083", "lat": "-39.8623966", "lng": "-72.8124864", "Oct-17-2020": "1"}, {"location": "La Papa Chilota DELIVERY", "id": "648176662215580", "lat": "-39.86433", "lng": "-72.8081799", "Oct-17-2020": "1"}, {"location": "Sludge Factory Store", "id": "1965859313532010", "lat": null, "lng": null, "Oct-17-2020": null}, {"location": "centro de llamados dungun", "id": "2147950315249061", "lat": "-39.8620239211", "lng": "-72.8153445943", "Oct-17-2020": "1"}, {"location": "Armon\u00eda Visual", "id": "102715884603321", "lat": "null", "lng": "null", "Oct-17-2020": "1"}, {"location": "Natu Crafts", "id": "136087549868131", "lat": "-39.86933", "lng": "-72.80363", "Oct-17-2020": "0"}, {"location": "Dulces Glaseados", "id": "1587049458038472", "lat": "-39.85875", "lng": "-72.80459", "Oct-17-2020": "0"}, {"location": "Artemania Joyas-Mall Paseo Chilo\u00e9", "id": "1638715876157060", "lat": "-39.86433", "lng": "-72.8081799", "Oct-17-2020": "1"}, {"location": "HAND ROLL LIFE", "id": "1694537047244585", "lat": null, "lng": null, "Oct-17-2020": null}, {"location": "Bykoka", "id": "1942407149319500", "lat": null, "lng": null, "Oct-17-2020": null}, {"location": "Club de Ski y monta\u00f1a Tronadores", "id": "124717768922612", "lat": "-39.86071", "lng": "-72.80429", "Oct-17-2020": "1"}, {"location": "Al Natural", "id": "106801954309196", "lat": "-39.86982", "lng": "-72.80174", "Oct-17-2020": "1"}, {"location": "Liceo", "id": "1019593386", "lat": "-39.8642455", "lng": "-72.8031499", "Oct-17-2020": "1"}, {"location": "Departamento Provincial de Educaci\u00f3n Chilo\u00e9", "id": "1021644596", "lat": null, "lng": null, "Oct-17-2020": null}, {"location": "Unimarc Los Lagos", "id": "274853652", "lat": "-39.8621190061", "lng": "-72.8153235722", "Oct-17-2020": "2"}, {"location": "La Murta", "id": "112806090474714", "lat": "null", "lng": "null", "Oct-17-2020": "1"}, {"location": "Primera Compa\u00f1ia esmeralda Los Lagos", "id": "853769156", "lat": "-39.86173896", "lng": "-72.81540531", "Oct-17-2020": "1"}, {"location": "JMedia Chilo\u00e9", "id": "1008641676", "lat": "-39.8656966", "lng": "-72.8071474", "Oct-17-2020": "1"}, {"location": "Lago Todos Los Santos", "id": "766548778", "lat": "-39.86544", "lng": "-72.80189", "Oct-17-2020": "1"}]