[{"location": "Paillaco, Chile", "id": "223427349", "lat": "-40.0700999", "lng": "-72.87154", "Oct-17-2020": "38376"}, {"location": "Paillaco Los Lagos", "id": "1026726890", "lat": "-40.0728054765", "lng": "-72.8739655732", "Oct-17-2020": "4623"}, {"location": "Paillaco, Los R\u00edos", "id": "2271762009778261", "lat": "-40.0700999", "lng": "-72.87154", "Oct-17-2020": "2770"}, {"location": "Pailllaco", "id": "1017345916", "lat": "-40.0774709", "lng": "-72.8684204", "Oct-17-2020": "1643"}, {"location": "Centro de Estudios Cient\u00edficos, CECs", "id": "801017843", "lat": "-39.8139200413", "lng": "-73.2478342133", "Oct-17-2020": "1090"}, {"location": "Liceo Rodulfo Amando Philippi", "id": "284084088", "lat": "-40.0692810349", "lng": "-72.866694793", "Oct-17-2020": "1115"}, {"location": "De campo y r\u00edo", "id": "192279944686305", "lat": "-40.0838183437", "lng": "-72.8643922421", "Oct-17-2020": "1055"}, {"location": "Lanpu Tattoo", "id": "107104600861327", "lat": "-40.0727786", "lng": "-72.8672042", "Oct-17-2020": "504"}, {"location": "CENTRONUEVOTaboada", "id": "101486077386806", "lat": "-40.0729496", "lng": "-72.8711927", "Oct-17-2020": "576"}, {"location": "Club De La Uni\u00f3n 2018", "id": "1807535739502357", "lat": "-39.8147153457", "lng": "-73.2454245219", "Oct-17-2020": "567"}, {"location": "Itropulli, Paillaco", "id": "146130409333332", "lat": "-40.070847", "lng": "-72.873391", "Oct-17-2020": "529"}, {"location": "Sunset Club", "id": "191283271211779", "lat": "-40.3351445", "lng": "-72.9550169", "Oct-17-2020": "206"}, {"location": "Plaza de la Rep\u00fablica Paillaco", "id": "795745947", "lat": "-40.0707014562", "lng": "-72.872901605", "Oct-17-2020": "410"}, {"location": "Fehlandt Cerveza Granel", "id": "645057032633986", "lat": "-40.0739971", "lng": "-72.8726344", "Oct-17-2020": "279"}, {"location": "Cruce Paillaco", "id": "333658429", "lat": "-40.10108844", "lng": "-72.86722883", "Oct-17-2020": "266"}, {"location": "Casa_mackenna", "id": "246578329399756", "lat": "-40.0699047861", "lng": "-72.8639286219", "Oct-17-2020": "384"}, {"location": "Arco Iris", "id": "806937878", "lat": "-40.1279013092", "lng": "-72.7569273301", "Oct-17-2020": "249"}, {"location": "Corp Cultura Paillaco", "id": "1033199467", "lat": null, "lng": null, "Oct-17-2020": null}, {"location": "Comuna De Paillaco, Regi\u00f3n De Los R\u00edos", "id": "113850610341282", "lat": "-40.0700999", "lng": "-72.87154", "Oct-17-2020": "140"}, {"location": "Cerveceria Restobeer Km858 Paillaco", "id": "564268002", "lat": "-40.0701656984", "lng": "-72.8615732661", "Oct-17-2020": "185"}, {"location": "Pastas Trigo Valdivia", "id": "1025440616", "lat": "-39.819465332", "lng": "-73.245631803", "Oct-17-2020": "159"}, {"location": "Manao Bajo", "id": "926291085", "lat": "-40.0725399", "lng": "-72.8710799", "Oct-17-2020": "76"}, {"location": "Metropolis Paillaco", "id": "285854183", "lat": "-40.0705182552", "lng": "-72.8690314293", "Oct-17-2020": "72"}, {"location": "Skatepark Paillaco", "id": "1029375903", "lat": "-40.0698229", "lng": "-72.8680631", "Oct-17-2020": "151"}, {"location": "Restobeer y Cerveza Artesanal KM 858", "id": "665292565", "lat": "-40.0701038537", "lng": "-72.8615651639", "Oct-17-2020": "146"}, {"location": "Plaza De Paillaco", "id": "224330050", "lat": "-40.0707337514", "lng": "-72.872957197", "Oct-17-2020": "136"}, {"location": "R\u00edo Itropulli", "id": "241450663190348", "lat": "-40.1106213659", "lng": "-72.8005720764", "Oct-17-2020": "117"}, {"location": "paillaco Estadio Cincuentenario", "id": "445196669", "lat": "-40.0700287001", "lng": "-72.8718957502", "Oct-17-2020": "133"}, {"location": "Hospital Paillaco", "id": "119987201974492", "lat": "-40.071685791", "lng": "-72.8665542603", "Oct-17-2020": "109"}, {"location": "Familia Guzman Fuentes", "id": "122529547941701", "lat": null, "lng": null, "Oct-17-2020": null}, {"location": "Gimnasio Johns Power Gym Chile", "id": "603185273058650", "lat": "-40.0699657665", "lng": "-72.877270914", "Oct-17-2020": "131"}, {"location": "Escuela Proyecto de Futuro", "id": "612603206", "lat": "-40.0724089691", "lng": "-72.8690798286", "Oct-17-2020": "60"}, {"location": "en Valdivia", "id": "255184197", "lat": "-40.0695051765", "lng": "-72.8652146667", "Oct-17-2020": "112"}, {"location": "Itropulli", "id": "269014559", "lat": "-40.1218039021", "lng": "-72.772413646", "Oct-17-2020": "111"}, {"location": "Volcan Villarrica Pucon", "id": "353522994", "lat": "-40.0625612", "lng": "-72.8688207", "Oct-17-2020": "97"}, {"location": "Escuela Alemana Paillaco", "id": "1015584447", "lat": "-40.07374383", "lng": "-72.8756126", "Oct-17-2020": "99"}, {"location": "Hospital De Paillaco", "id": "420437453", "lat": "-40.0718458096", "lng": "-72.8665812322", "Oct-17-2020": "83"}, {"location": "Francia La Torre Aifel", "id": "1014469652", "lat": "-40.060513", "lng": "-72.873495", "Oct-17-2020": "94"}, {"location": "Nuevo Estadio Municipal De Paillaco", "id": "402236036895171", "lat": "-40.0690758057", "lng": "-72.867052104", "Oct-17-2020": "114"}, {"location": "Primera Compa\u00f1ia de Bomberos Germania Paillaco", "id": "959986156", "lat": "-40.0744460333", "lng": "-72.8708577667", "Oct-17-2020": "74"}, {"location": "Parque Cincuentenario", "id": "746653195", "lat": "-40.0719275151", "lng": "-72.8661500701", "Oct-17-2020": "76"}, {"location": "Auditorium Santiago Santana", "id": "792540534145175", "lat": "-40.0735303511", "lng": "-72.8735903994", "Oct-17-2020": "83"}, {"location": "Tercera Compa\u00f1ia Arturo Prat Paillaco", "id": "1023062659", "lat": "-40.0700174328", "lng": "-72.8665048772", "Oct-17-2020": "81"}, {"location": "Cesfam Lautaro Caro Rios Paillaco", "id": "835090569906697", "lat": "-40.0664265962", "lng": "-72.8694822577", "Oct-17-2020": "78"}, {"location": "Rio Itropulli, Paillaco", "id": "956357078", "lat": "-40.11025807", "lng": "-72.80117146", "Oct-17-2020": "66"}, {"location": "Residencia Familia Ortiz Oyarzo", "id": "416714322", "lat": "-40.073131769", "lng": "-72.870322757", "Oct-17-2020": "61"}, {"location": "Colegio Cardenal Ra\u00fal Silva Henr\u00edquez", "id": "1984187148475205", "lat": "-40.069592784", "lng": "-72.8631061702", "Oct-17-2020": "78"}, {"location": "Jokers", "id": "100119181638579", "lat": "-40.0732991", "lng": "-72.8735415", "Oct-17-2020": "61"}, {"location": "Hospital Paillaco", "id": "1747527885327788", "lat": "-40.0718136415", "lng": "-72.8665978766", "Oct-17-2020": "75"}, {"location": "Nueva Estaci\u00f3n", "id": "1839901069622530", "lat": "-40.071084972", "lng": "-72.877490038", "Oct-17-2020": "57"}, {"location": "Paillaco Liceo Rodulfopaillaco", "id": "1022086868", "lat": "-40.0693944", "lng": "-72.8666792", "Oct-17-2020": "50"}, {"location": "Parque Cincuentenario Paillaco", "id": "1615650455192882", "lat": "-40.070847", "lng": "-72.873391", "Oct-17-2020": "72"}, {"location": "Paillaco City", "id": "262330236", "lat": "-40.0728188262", "lng": "-72.8741134473", "Oct-17-2020": "58"}, {"location": "Escuela Agroecologica De Lumaco", "id": "920734564703692", "lat": "-40.0667", "lng": "-72.8833", "Oct-17-2020": "58"}, {"location": "Estadio Municipal De Paillaco", "id": "519581296", "lat": "-40.0692162837", "lng": "-72.8687117247", "Oct-17-2020": "53"}, {"location": "Isla Huapi", "id": "560766267", "lat": "-40.07202834", "lng": "-72.87138278", "Oct-17-2020": "54"}, {"location": "Socoepa", "id": "339214211", "lat": "-40.0775753264", "lng": "-72.8631183187", "Oct-17-2020": "20"}, {"location": "Terminal de Buses Paillaco", "id": "35728402", "lat": "-40.072854616", "lng": "-72.8741344452", "Oct-17-2020": "46"}, {"location": "Paillaco - Campo", "id": "482552025188292", "lat": "-40.0660222", "lng": "-72.865408", "Oct-17-2020": "54"}, {"location": "Carretera 5 Sur", "id": "613262823", "lat": "-40.0420969033", "lng": "-72.8505896498", "Oct-17-2020": "45"}, {"location": "Dejavu Multiespacio Tu punto de encuentro", "id": "559290568", "lat": null, "lng": null, "Oct-17-2020": null}, {"location": "Gato Encerrado", "id": "105464840896236", "lat": "-40.0717251651", "lng": "-72.8747884151", "Oct-17-2020": "61"}, {"location": "en Paillaco", "id": "241634197", "lat": "-40.0639608342", "lng": "-72.8689668937", "Oct-17-2020": "45"}, {"location": "GreenBar Paillaco", "id": "1031828720", "lat": "-40.0720944", "lng": "-72.8773728", "Oct-17-2020": "45"}, {"location": "Terminal De Buses Paillaco", "id": "1504544482925979", "lat": "-40.0728798762", "lng": "-72.8741590098", "Oct-17-2020": "31"}, {"location": "Tahiti Pub Restobar", "id": "474180903", "lat": null, "lng": null, "Oct-17-2020": null}, {"location": "Chocolater\u00eda Gnomos Valdivia", "id": "1756350911350132", "lat": "-40.0749262", "lng": "-72.8698876", "Oct-17-2020": "33"}, {"location": "DanaeStetic", "id": "1965980100120476", "lat": "-40.0639512", "lng": "-72.8707777", "Oct-17-2020": "85"}, {"location": "R\u00edo Itropulli", "id": "25406954", "lat": "-40.1107108213", "lng": "-72.80431077", "Oct-17-2020": "42"}, {"location": "Paillaco City", "id": "1679179658882078", "lat": "-40.0693125", "lng": "-72.8748802", "Oct-17-2020": "32"}, {"location": "Centro Veterinario JE", "id": "469981360423306", "lat": "-40.0739855", "lng": "-72.8720722", "Oct-17-2020": "34"}, {"location": "Demaihue, Paillaco", "id": "114560283519525", "lat": "-40.0525430966", "lng": "-72.8797977084", "Oct-17-2020": "30"}, {"location": "Plaza Independencia Paillaco", "id": "1546588665648879", "lat": "-40.0708056067", "lng": "-72.8734160566", "Oct-17-2020": "36"}, {"location": "Demaihue, Paillaco", "id": "1005780609", "lat": "-40.03903615", "lng": "-72.84706495", "Oct-17-2020": "47"}, {"location": "Gimnasio Municipal De Paillaco", "id": "321286186", "lat": "-40.0697758995", "lng": "-72.8675822811", "Oct-17-2020": "31"}, {"location": "Quilacahuin, Osorno -Chile", "id": "1016684922", "lat": "-40.0654167", "lng": "-72.8675732", "Oct-17-2020": "36"}, {"location": "Colegio San Antonio, Aguas Negras.", "id": "1100220066685073", "lat": "-40.0667", "lng": "-72.8833", "Oct-17-2020": "44"}, {"location": "DentalSur Centro Odontol\u00f3gico Paillaco", "id": "207896179615781", "lat": "-40.0733036", "lng": "-72.8736177", "Oct-17-2020": "24"}, {"location": "Mutant Bikes Parts and Tools", "id": "1406193989444751", "lat": "-40.0668556", "lng": "-72.8695557", "Oct-17-2020": "47"}, {"location": "Coffee Black", "id": "1546309362360092", "lat": "-40.07176069", "lng": "-72.87306072", "Oct-17-2020": "36"}, {"location": "Fiesta del Cordero Paillaco", "id": "312222596052111", "lat": "null", "lng": "null", "Oct-17-2020": "42"}, {"location": "Escuela Particular 95 Alemana/ Paillaco.", "id": "158548180876917", "lat": "-40.0733676", "lng": "-72.8754396", "Oct-17-2020": "39"}, {"location": "Trolico", "id": "1802456706689696", "lat": "-40.11992063", "lng": "-72.78740128", "Oct-17-2020": "43"}, {"location": "Body Power Gym", "id": "151947122162655", "lat": "-40.0672225952", "lng": "-72.8708343506", "Oct-17-2020": "61"}, {"location": "Radio Diferencia Paillaco", "id": "650862244961057", "lat": "-40.074459213", "lng": "-72.8732585907", "Oct-17-2020": "32"}, {"location": "Centro Tur\u00edstico Hotel Costanera Caja los Andes", "id": "386017035", "lat": "-40.0596635536", "lng": "-72.8760266304", "Oct-17-2020": "38"}, {"location": "Sushi Drag\u00f3n Oriental, Paillaco.", "id": "1014857466", "lat": "-40.069964", "lng": "-72.8716964", "Oct-17-2020": "30"}, {"location": "Cayum\u00e1n", "id": "1028524075", "lat": "-40.0635286", "lng": "-72.8688266", "Oct-17-2020": "13"}, {"location": "Municipalidad De Paillaco Chile", "id": "787708174", "lat": "-40.0699705008", "lng": "-72.8731765455", "Oct-17-2020": "28"}, {"location": "Puerto Oscuro, Huite Quemchi", "id": "111436922957240", "lat": "-40.05432169", "lng": "-72.85723348", "Oct-17-2020": "31"}, {"location": "Escuela Olegario Morales Oliva", "id": "1015690107", "lat": "-40.0715472029", "lng": "-72.8712701354", "Oct-17-2020": "33"}, {"location": "Parrillas La Italia", "id": "1719337561727041", "lat": "-40.0750064", "lng": "-72.8667046", "Oct-17-2020": "31"}, {"location": "El pollaco", "id": "107077097303165", "lat": "-40.0705482", "lng": "-72.8745503", "Oct-17-2020": "32"}, {"location": "Central De Alarmas Bomberos Paillaco", "id": "548612804", "lat": "-40.0707408", "lng": "-72.8655176", "Oct-17-2020": "28"}, {"location": "Cerveza Surbier", "id": "11550929974", "lat": "-40.0733426716", "lng": "-72.8795778751", "Oct-17-2020": "27"}, {"location": "Muebler\u00eda Huichahue", "id": "618471257", "lat": "null", "lng": "null", "Oct-17-2020": "44"}, {"location": "Fiesta de la Cerveza Paillaco", "id": "2168003559960914", "lat": "-40.0743663", "lng": "-72.8704562", "Oct-17-2020": "42"}, {"location": "Itropulli Callejon Millapan", "id": "1656221241101270", "lat": "-40.070847", "lng": "-72.873391", "Oct-17-2020": "28"}, {"location": "Comercial Socoepa", "id": "1023627553", "lat": "-40.0729874226", "lng": "-72.8740850382", "Oct-17-2020": "17"}, {"location": "Salida Sur Valdivia", "id": "640719655", "lat": "-40.07240372", "lng": "-72.88145006", "Oct-17-2020": "26"}, {"location": "En Casa De Mabia Y Ariel", "id": "415892935284704", "lat": "-40.066152", "lng": "-72.8767061", "Oct-17-2020": "26"}, {"location": "Los Tallos Pichirropulli", "id": "629315070528996", "lat": "-40.0702486", "lng": "-72.871198", "Oct-17-2020": "25"}, {"location": "escuela 21 de Mayo", "id": "1012599123", "lat": "-40.1224205918", "lng": "-72.7734658966", "Oct-17-2020": "26"}, {"location": "Liceo Agricola Radio 24 El Llolly", "id": "218269408947035", "lat": "-40.0697314", "lng": "-72.8768083", "Oct-17-2020": "35"}, {"location": "URBAN STYLE Hair Studio", "id": "1066260073561957", "lat": "-40.071229294", "lng": "-72.8742617235", "Oct-17-2020": "78"}, {"location": "La Luma Paillaco", "id": "569768218", "lat": "-40.066093", "lng": "-72.8777882", "Oct-17-2020": "23"}, {"location": "Camino A La Union", "id": "951500075", "lat": "-40.0728291", "lng": "-72.8741144", "Oct-17-2020": "19"}, {"location": "Papa Ghersis Pizza", "id": "100600021581102", "lat": "-40.06744", "lng": "-72.86013", "Oct-17-2020": "33"}, {"location": "Club de Pesca y Caza, Paillaco", "id": "436448405", "lat": "-40.0860343222", "lng": "-72.8471182159", "Oct-17-2020": "24"}, {"location": "La Cascada", "id": "2153596518225368", "lat": "-40.0838114582", "lng": "-72.8643321724", "Oct-17-2020": "22"}, {"location": "UNIMARC", "id": "2033464590273657", "lat": "-40.0723722", "lng": "-72.8734704", "Oct-17-2020": "22"}, {"location": "Segunda Compa\u00f1\u00eda de Bomberos Bernardo OHiggins Paillaco", "id": "1033472244", "lat": "-40.0713680143", "lng": "-72.8725248429", "Oct-17-2020": "14"}, {"location": "Primera Compa\u00f1ia De Bomberos De Paillaco", "id": "421951794", "lat": "-40.0744601755", "lng": "-72.870765373", "Oct-17-2020": "22"}, {"location": "Toqui", "id": "285450798621380", "lat": "null", "lng": "null", "Oct-17-2020": "27"}, {"location": "Cruce Ruta 5 - Valdivia", "id": "1027432869", "lat": "-40.0898259401", "lng": "-72.8645946935", "Oct-17-2020": "21"}, {"location": "Manao alto Paillaco", "id": "400195550169347", "lat": "-40.0667", "lng": "-72.8833", "Oct-17-2020": "20"}, {"location": "Media Luna De Paillaco", "id": "577540403", "lat": "-40.0671214922", "lng": "-72.8685193173", "Oct-17-2020": "20"}, {"location": "Mi Radio De Paillaco", "id": "404235576314931", "lat": "-40.0686498", "lng": "-72.8747812", "Oct-17-2020": "18"}, {"location": "Demaihue", "id": "312817312524841", "lat": "-40.07076", "lng": "-72.8772133333", "Oct-17-2020": "22"}, {"location": "Mi Hermosa Y Linda Casita", "id": "115095076544386", "lat": "-40.0651466", "lng": "-72.8735892", "Oct-17-2020": "21"}, {"location": "Girasoles", "id": "108647334259080", "lat": "-40.06744", "lng": "-72.86013", "Oct-17-2020": "23"}, {"location": "Paillaco, Valdivia", "id": "241638129", "lat": "-40.0784329372", "lng": "-72.862282966", "Oct-17-2020": "19"}, {"location": "Kine Al\u00fcn", "id": "2030941693859797", "lat": "-40.0742488019", "lng": "-72.8715640703", "Oct-17-2020": "16"}, {"location": "Gimnacio Municipal Paillaco", "id": "202974377070691", "lat": "-40.0698900334", "lng": "-72.8679606555", "Oct-17-2020": "25"}, {"location": "Camino a Osorno", "id": "1012055973", "lat": "-40.0595738073", "lng": "-72.8606509767", "Oct-17-2020": "15"}, {"location": "Carrillos House", "id": "521315870", "lat": "-40.075208137", "lng": "-72.8673344456", "Oct-17-2020": "17"}, {"location": "Fiesta Del Cordero De Paillaco", "id": "519457733", "lat": "-40.0693131581", "lng": "-72.8687059741", "Oct-17-2020": "14"}, {"location": "Plaza De Arma Paillaco", "id": "928646214", "lat": "-40.070696574", "lng": "-72.8726885887", "Oct-17-2020": "14"}, {"location": "Kunstman Valdivia", "id": "1026825259", "lat": "-40.055905", "lng": "-72.8916", "Oct-17-2020": "17"}, {"location": "Los cipreses comida al paso", "id": "1642057532475268", "lat": "-40.06744", "lng": "-72.86014", "Oct-17-2020": "12"}, {"location": "Departamento de Salud Paillaco", "id": "272625493538027", "lat": "-40.0719568035", "lng": "-72.8718008429", "Oct-17-2020": "17"}, {"location": "Km. 852 Ruta 5 Sur", "id": "556650057679561", "lat": "-40.0539730089", "lng": "-72.8573413052", "Oct-17-2020": "19"}, {"location": "En Mi Casita, Mi Mundo", "id": "1452699908379822", "lat": "-40.0627223518", "lng": "-72.8685256296", "Oct-17-2020": "20"}, {"location": "Medialuna Club de Rodeo Paillaco.", "id": "1019392169", "lat": "-40.0679894976", "lng": "-72.8701734024", "Oct-17-2020": "13"}, {"location": "Mi Casa", "id": "581690280", "lat": "-40.07041335", "lng": "-72.86831736", "Oct-17-2020": "20"}, {"location": "Dejavu Multiespacio", "id": "424380431", "lat": "-40.0652125219", "lng": "-72.8601876301", "Oct-17-2020": "14"}, {"location": "Centro de Eventos Los Troncos", "id": "389953761454020", "lat": "-40.0663004", "lng": "-72.8665358003", "Oct-17-2020": "17"}, {"location": "Fundo Demaihue", "id": "796247513", "lat": "-40.06744", "lng": "-72.86014", "Oct-17-2020": "15"}, {"location": "Lenny Sal\u00f3n", "id": "208630053056432", "lat": "-40.0742397", "lng": "-72.8714974", "Oct-17-2020": "17"}, {"location": "Piscina quincho Demaihue", "id": "509948272720532", "lat": "-40.06744", "lng": "-72.86014", "Oct-17-2020": "14"}, {"location": "Funcional Training", "id": "1027478405", "lat": "-40.0731836", "lng": "-72.8718924", "Oct-17-2020": "16"}, {"location": "Paula del Sur", "id": "183000682096792", "lat": "-40.07005367", "lng": "-72.87175001", "Oct-17-2020": "18"}, {"location": "Feria Ganaderos Osorno S.A. Paillaco", "id": "382737495070932", "lat": "-40.063456972", "lng": "-72.8579623545", "Oct-17-2020": "6"}, {"location": "Consultorio De Paillaco", "id": "656129678", "lat": "-40.0663950092", "lng": "-72.8696775327", "Oct-17-2020": "14"}, {"location": "Regina,rio Llollelhue, Paillaco", "id": "1025005679", "lat": "-40.0710822", "lng": "-72.8774429", "Oct-17-2020": "13"}, {"location": "Mind Healing", "id": "232793517395680", "lat": "null", "lng": "null", "Oct-17-2020": "15"}, {"location": "Fund\u00f3 Rucaquil\u00e9n", "id": "1018430962", "lat": "-40.10322372", "lng": "-72.84421374", "Oct-17-2020": "13"}, {"location": "Aguas Negras", "id": "1018756328", "lat": "-40.07537754", "lng": "-72.75959462", "Oct-17-2020": "11"}, {"location": "Bio Peluqueria Chic", "id": "286294351725103", "lat": "-40.0732988", "lng": "-72.8735014", "Oct-17-2020": "13"}, {"location": "Pasarela Norte Cruce Paillaco", "id": "1027262285", "lat": "-40.0701494861", "lng": "-72.860536288", "Oct-17-2020": "13"}, {"location": "Lago Pullehue", "id": "581586603", "lat": "-40.0640905", "lng": "-72.8710424", "Oct-17-2020": "13"}, {"location": "Parrilladas De La Italia", "id": "1016620639", "lat": "-40.0749176", "lng": "-72.8667284", "Oct-17-2020": "12"}, {"location": "Canqu\u00e9n Roper\u00eda Infantil", "id": "227648501177851", "lat": "-40.0708197", "lng": "-72.874884", "Oct-17-2020": "16"}, {"location": "Buddys", "id": "106507769840173", "lat": "-40.066133971", "lng": "-72.8676581383", "Oct-17-2020": "17"}, {"location": "Feria Costumbrista De Santa Rosa Chica Paillaco", "id": "1865188263693467", "lat": "-40.0697728043", "lng": "-72.8687374835", "Oct-17-2020": "18"}, {"location": "ChileHaus", "id": "805440922955822", "lat": "-40.0706004995", "lng": "-72.8656947613", "Oct-17-2020": "6"}, {"location": "Escuela Olegario Morales Oliva", "id": "337652350145448", "lat": "-40.0714543613", "lng": "-72.8710913658", "Oct-17-2020": "17"}, {"location": "Alturas de Cayuman", "id": "1555044727908872", "lat": "null", "lng": "null", "Oct-17-2020": "9"}, {"location": "Villa Padre Alberto Hurtado Itropulli", "id": "1808956632686811", "lat": "-40.12696775", "lng": "-72.7727587", "Oct-17-2020": "2"}, {"location": "Centro De Di\u00e1lisis Vidadial", "id": "237895716612720", "lat": "-40.0708064", "lng": "-72.8663461", "Oct-17-2020": "15"}, {"location": "Supermercado Unimarc Paillaco", "id": "749204204", "lat": "-40.0723533", "lng": "-72.873489", "Oct-17-2020": "12"}, {"location": "Extrasan Alimentaci\u00f3n Sana Y Para Deportistas", "id": "2047477078896831", "lat": "-40.07103", "lng": "-72.873653", "Oct-17-2020": "11"}, {"location": "Espacio Austrob\u00f3rea", "id": "340519143260304", "lat": "-40.07159", "lng": "-72.87747", "Oct-17-2020": "11"}, {"location": "Sala Cuna y Jardin Infantil Presidenta Michelle Bachelet Jeria", "id": "1030480771", "lat": "-40.0750084", "lng": "-72.8721313", "Oct-17-2020": "7"}, {"location": "Florer\u00eda Bel\u00e9n Paillaco", "id": "953772774788799", "lat": "-40.0779627003", "lng": "-72.8672500165", "Oct-17-2020": "23"}, {"location": "Phone Fix", "id": "563963227281859", "lat": "-40.0711423746", "lng": "-72.8736019135", "Oct-17-2020": "15"}, {"location": "Gimnacio Municipal Paillaco", "id": "1582200211840963", "lat": "-40.0726928001", "lng": "-72.8718132144", "Oct-17-2020": "10"}, {"location": "El Pollaco", "id": "111132697028127", "lat": "-40.0705482", "lng": "-72.8745503", "Oct-17-2020": "20"}, {"location": "En Casita Paillaco", "id": "261379418", "lat": "-40.0670282001", "lng": "-72.8702028534", "Oct-17-2020": "8"}, {"location": "Jard\u00edn Infantil Paillaquito Paillaco", "id": "1675062409199936", "lat": "-40.070829308", "lng": "-72.866388749", "Oct-17-2020": "12"}, {"location": "Base SAMU Paillaco", "id": "951976614960170", "lat": "-40.0718767716", "lng": "-72.8666454574", "Oct-17-2020": "8"}, {"location": "Liceo Rodulfo Amando Philippi Paillaco", "id": "128035991", "lat": "-40.0692400425", "lng": "-72.8667320078", "Oct-17-2020": "9"}, {"location": "Bonus Track", "id": "494967116", "lat": "-39.8121173", "lng": "-73.2451192", "Oct-17-2020": "8"}, {"location": "Vitra Paillaco", "id": "1028819753", "lat": "-40.0724588138", "lng": "-72.8783891047", "Oct-17-2020": "6"}, {"location": "Escuela San Antonio Aguas Negras", "id": "1031552121", "lat": "-40.07009", "lng": "-72.87149", "Oct-17-2020": "9"}, {"location": "Papalandia", "id": "2024327754272875", "lat": "-40.0748759", "lng": "-72.8682886", "Oct-17-2020": "11"}, {"location": "Cementerio Municipal", "id": "348268185935111", "lat": "-40.078059", "lng": "-72.866543", "Oct-17-2020": "23"}, {"location": "Villa Los Heroes Paillaco", "id": "493976901", "lat": "-40.076221249", "lng": "-72.8726083469", "Oct-17-2020": "10"}, {"location": "SeNiSaL", "id": "439399186850716", "lat": "-40.0742593", "lng": "-72.8722605", "Oct-17-2020": "9"}, {"location": "Cementerio Municipal Paillaco", "id": "587761688", "lat": "-40.077977306", "lng": "-72.86748191", "Oct-17-2020": "9"}, {"location": "Huerto Los Cortes", "id": "377922152544630", "lat": "-40.070847", "lng": "-72.873391", "Oct-17-2020": "10"}, {"location": "Peluquer\u00eda unisex Mely", "id": "103433828064875", "lat": "-40.07009", "lng": "-72.87149", "Oct-17-2020": "13"}, {"location": "Mi Casa", "id": "431354748", "lat": "-40.0731796897", "lng": "-72.8704573072", "Oct-17-2020": "19"}, {"location": "Delimarket Neuqu\u00e9n", "id": "126133544668257", "lat": "-40.0727786", "lng": "-72.8672042", "Oct-17-2020": "5"}, {"location": "Centroptico", "id": "106711337374122", "lat": "-40.0732615", "lng": "-72.8723069", "Oct-17-2020": "4"}, {"location": "OTEC First Responder", "id": "1003585772", "lat": "null", "lng": "null", "Oct-17-2020": "11"}, {"location": "CCR Paillaco", "id": "1757786474445406", "lat": "-40.0740191", "lng": "-72.8736116", "Oct-17-2020": "10"}, {"location": "Avimedia.cl", "id": "292545964761216", "lat": "-40.0716541", "lng": "-72.8761122", "Oct-17-2020": "10"}, {"location": "Ultravioleta Manicure nailart", "id": "331611744084730", "lat": "-40.0742349", "lng": "-72.8711082", "Oct-17-2020": "10"}, {"location": "Gimnasio Itropulli", "id": "1015079509", "lat": "-40.121561", "lng": "-72.7724374", "Oct-17-2020": "7"}, {"location": "Aguas Negras Sin Numero", "id": "905769556141950", "lat": "-40.0700650344", "lng": "-72.8640599549", "Oct-17-2020": "8"}, {"location": "Ciudad Paillaco", "id": "290216689", "lat": "-40.0773761", "lng": "-72.8673366", "Oct-17-2020": "7"}, {"location": "Fundo San Ramon", "id": "809773454", "lat": null, "lng": null, "Oct-17-2020": null}, {"location": "Fritangananica", "id": "598596813909146", "lat": "-40.0713220199", "lng": "-72.8773191965", "Oct-17-2020": "6"}, {"location": "Santiago", "id": "260449927", "lat": null, "lng": null, "Oct-17-2020": null}, {"location": "El Mirador, Paillaco", "id": "714599125254194", "lat": "-40.0681991577", "lng": "-72.8616790771", "Oct-17-2020": "4"}, {"location": "Celipras", "id": "2884137", "lat": "-40.0702561083", "lng": "-72.8730266207", "Oct-17-2020": "6"}, {"location": "Campo Aitue", "id": "2179582532364175", "lat": "-40.06744", "lng": "-72.86014", "Oct-17-2020": "7"}, {"location": "Hotel Paillaco", "id": "1029560972", "lat": "-40.0740949", "lng": "-72.8666134", "Oct-17-2020": "6"}, {"location": "Cooperativa Electrica Paillaco LTDA", "id": "471841446312121", "lat": "-40.0775102734", "lng": "-72.8631661612", "Oct-17-2020": "6"}, {"location": "Aves Del Mirador Paillaco", "id": "2093750584175730", "lat": "-40.0701", "lng": "-72.87154", "Oct-17-2020": "3"}, {"location": "Isla Kem", "id": "1022194812", "lat": "-40.05850137", "lng": "-72.86542034", "Oct-17-2020": "3"}, {"location": "Maxima Belleza", "id": "1025531717", "lat": "-40.0667", "lng": "-72.8833", "Oct-17-2020": "7"}, {"location": "Escuela Proyecto Futuro", "id": "1595854860515096", "lat": "-40.0727006682", "lng": "-72.8734046201", "Oct-17-2020": "8"}, {"location": "Fundo El Maiten, El Llolly", "id": "1697218410607253", "lat": "-40.070847", "lng": "-72.873391", "Oct-17-2020": "5"}, {"location": "Apicop Paillaco", "id": "101184956677743", "lat": "-40.0742737576", "lng": "-72.8746166864", "Oct-17-2020": "1"}, {"location": "Fundo Demaihue.", "id": "208216575979988", "lat": "-40.0632009795", "lng": "-72.8759003989", "Oct-17-2020": "5"}, {"location": "Estacion Paillaco", "id": "296481237510095", "lat": "-40.0728505", "lng": "-72.8717424", "Oct-17-2020": "3"}, {"location": "En Mi Casa", "id": "265859713426048", "lat": "-40.0706506", "lng": "-72.872998", "Oct-17-2020": "7"}, {"location": "Posta de Itropulli", "id": "217969274896032", "lat": "-40.1221931215", "lng": "-72.772536599", "Oct-17-2020": "6"}, {"location": "Pichiquema Paillaco", "id": "1020556848", "lat": "-40.0698700452", "lng": "-72.8756667095", "Oct-17-2020": "5"}, {"location": "Residencia Familia Palma-Casanova", "id": "1032458591", "lat": "-40.0706611094", "lng": "-72.8768171223", "Oct-17-2020": "5"}, {"location": "Col\u00fan Paillaco", "id": "583761268", "lat": "-40.070758235", "lng": "-72.873638385", "Oct-17-2020": "6"}, {"location": "Jardin Mi Cubo", "id": "516640586", "lat": "-39.80674922", "lng": "-73.2502509", "Oct-17-2020": "5"}, {"location": "Moda Estaci\u00f3n Tienda Online", "id": "358642324624036", "lat": "null", "lng": "null", "Oct-17-2020": "4"}, {"location": "Piscina Picnic Demaihue", "id": "1008826472543542", "lat": "-40.0700999", "lng": "-72.87154", "Oct-17-2020": "4"}, {"location": "Subcomisaria Paillaco", "id": "1035222065", "lat": "-40.0651000807", "lng": "-72.8685721801", "Oct-17-2020": "2"}, {"location": "Escuela de Lenguaje Recrear", "id": "418972104855649", "lat": "-40.0753769", "lng": "-72.8663369", "Oct-17-2020": "3"}, {"location": "Cruce La Luma", "id": "495794907180739", "lat": "-40.07245964", "lng": "-72.8816477", "Oct-17-2020": "9"}, {"location": "Huerto Los Cortes, Km 863 Paillaco.", "id": "743506342514344", "lat": "-40.070847", "lng": "-72.873391", "Oct-17-2020": "8"}, {"location": "Colegio Cardenal Raul Silva Henr\u00edquez, Paillaco", "id": "1031583391", "lat": "-40.0699135", "lng": "-72.8636437", "Oct-17-2020": "5"}, {"location": "Bajon Expres", "id": "653478428126544", "lat": "-40.0700999", "lng": "-72.87154", "Oct-17-2020": "7"}, {"location": "En Mi Casita Abrigadita Paillaco", "id": "693465760738997", "lat": "-40.066213", "lng": "-72.8658631929", "Oct-17-2020": "6"}, {"location": "El R\u00e1pido", "id": "1010847875735116", "lat": "-40.0708889", "lng": "-72.8735554", "Oct-17-2020": "6"}, {"location": "Ventas Lomaflor", "id": "1349085231892558", "lat": "-40.0733332", "lng": "-72.8743351", "Oct-17-2020": "5"}, {"location": "En La Casa De Mario", "id": "395133966", "lat": "-40.0644508176", "lng": "-72.866204516", "Oct-17-2020": "5"}, {"location": "Senic Paillaco", "id": "224711194691130", "lat": "-40.0713019", "lng": "-72.8759358", "Oct-17-2020": "5"}, {"location": "Pichangas Ram\u00edrez", "id": "101139678141261", "lat": "null", "lng": "null", "Oct-17-2020": "8"}, {"location": "Cl\u00ednica Balmaceda Paillaco", "id": "172791483175687", "lat": "-40.0708567", "lng": "-72.8745286", "Oct-17-2020": "5"}, {"location": "Hotel Paillaco", "id": "348308802301278", "lat": "-40.074252521", "lng": "-72.86655869", "Oct-17-2020": "3"}, {"location": "Comunidad Ancestral Paillao, Valdivia,", "id": "317260965089037", "lat": "-40.0688374", "lng": "-72.8702021", "Oct-17-2020": "5"}, {"location": "El Rinc\u00f3n de Marilyn", "id": "161701967817461", "lat": "-40.06579055", "lng": "-72.8660717001", "Oct-17-2020": "5"}, {"location": "Condominio Golfo Azul", "id": "273007192902270", "lat": "-40.0727515", "lng": "-72.8743776", "Oct-17-2020": "2"}, {"location": "Happy My Friends", "id": "102158788233944", "lat": "null", "lng": "null", "Oct-17-2020": "3"}, {"location": "Terminal Socoepa Paillaco", "id": "269971360078003", "lat": "-40.0728849224", "lng": "-72.8741647303", "Oct-17-2020": "4"}, {"location": "Residencia D\u00edaz Durbahn", "id": "100265115069291", "lat": "-40.076381", "lng": "-72.8653696", "Oct-17-2020": "3"}, {"location": "Peluqueria Sagitario", "id": "783994771645349", "lat": "-40.07157437", "lng": "-72.8746285", "Oct-17-2020": "3"}, {"location": "Wild Cast Chile", "id": "491693777851877", "lat": "-40.06744", "lng": "-72.86013", "Oct-17-2020": "1"}, {"location": "Podologia Oyarzun", "id": "612031462508288", "lat": "-40.06744", "lng": "-72.86014", "Oct-17-2020": "28"}, {"location": "Fritangananica", "id": "114102490017454", "lat": "-40.0717245", "lng": "-72.8773853", "Oct-17-2020": "4"}, {"location": "Fundo Bellavista Paillaco", "id": "1018340359", "lat": "-40.0724075", "lng": "-72.8428695", "Oct-17-2020": "5"}, {"location": "Aras Nacionales Huidif", "id": "1027934682", "lat": "-40.065131", "lng": "-72.867015", "Oct-17-2020": "3"}, {"location": "Escuela Rural 21 De Mayo, Itropulli", "id": "390958814595494", "lat": "-40.070847", "lng": "-72.873391", "Oct-17-2020": "3"}, {"location": "Patio Martino", "id": "100877304595752", "lat": "-40.0742909", "lng": "-72.873658", "Oct-17-2020": "4"}, {"location": "Tortas Personalizadas", "id": "388523261791841", "lat": "null", "lng": "null", "Oct-17-2020": "3"}, {"location": "Aguas Negras,Fundo San Antonio,regi\u00f3n de los r\u00edos", "id": "867191536", "lat": null, "lng": null, "Oct-17-2020": null}, {"location": "Escuela Alemana Paillaco", "id": "279892302", "lat": "-40.07374383", "lng": "-72.8756126", "Oct-17-2020": "4"}, {"location": "Growshop Paillaco", "id": "1516908545283031", "lat": "-40.0711752154", "lng": "-72.8743851185", "Oct-17-2020": "3"}, {"location": "Diferencia TV", "id": "194782247648233", "lat": "-40.0746227", "lng": "-72.8733347", "Oct-17-2020": "4"}, {"location": "Comercial FAM", "id": "1026528017502196", "lat": "-40.0677835212", "lng": "-72.8697200856", "Oct-17-2020": "0"}, {"location": "Medialuna Paillaco", "id": "116619002354144", "lat": "-40.0673574", "lng": "-72.8696137", "Oct-17-2020": "4"}, {"location": "Cancha De Tenis Paillaco", "id": "1296037850448064", "lat": "-40.0681646", "lng": "-72.8694666", "Oct-17-2020": "2"}, {"location": "Daem Paillaco", "id": "75928455", "lat": "-40.0735953933", "lng": "-72.8735015139", "Oct-17-2020": "5"}, {"location": "Manao Alto", "id": "1010525633", "lat": "-40.1145108886", "lng": "-72.8006756954", "Oct-17-2020": "6"}, {"location": "Los Acacios - Gorbea", "id": "1474744959413048", "lat": "-40.07069", "lng": "-72.8729987", "Oct-17-2020": "2"}, {"location": "Union Chilena", "id": "1029964538", "lat": "-40.12600256", "lng": "-72.74414183", "Oct-17-2020": "2"}, {"location": "Republica De Paillaco", "id": "1035108936", "lat": "-40.0731848013", "lng": "-72.8723125059", "Oct-17-2020": "3"}, {"location": "Club De Rodeo", "id": "525093566", "lat": "-40.0673032925", "lng": "-72.8686088976", "Oct-17-2020": "5"}, {"location": "Terminal de Buses Paillaco", "id": "194246984834579", "lat": "-40.0727854027", "lng": "-72.8741886962", "Oct-17-2020": "4"}, {"location": "Androide house", "id": "291556807890254", "lat": null, "lng": null, "Oct-17-2020": null}, {"location": "Casa De Acogida Juan Pablo Segundo ,paillaco", "id": "275886499743310", "lat": "-40.0729705715", "lng": "-72.8711444505", "Oct-17-2020": "4"}, {"location": "Alianza roja", "id": "304130783469864", "lat": null, "lng": null, "Oct-17-2020": null}, {"location": "Itropulli", "id": "112136173968233", "lat": "-40.0700999", "lng": "-72.87154", "Oct-17-2020": "4"}, {"location": "El Manzano, Paillaco, Chile", "id": "401848170184974", "lat": "-40.0710275151", "lng": "-72.8731314555", "Oct-17-2020": "3"}, {"location": "Carpinter\u00eda Y Jugueter\u00eda El Castor", "id": "390322558123832", "lat": "-40.0775066", "lng": "-72.8706556", "Oct-17-2020": "5"}, {"location": "Paillaco, Los Rios, Chile", "id": "370436263382946", "lat": "-40.0724811819", "lng": "-72.8737200102", "Oct-17-2020": "3"}, {"location": "Esperanza de Vida", "id": "478429396255536", "lat": "null", "lng": "null", "Oct-17-2020": "2"}, {"location": "Banco Del Estado, Sucursal Paillaco", "id": "847240908", "lat": "-40.0713308", "lng": "-72.874406", "Oct-17-2020": "2"}, {"location": "Los santos customs", "id": "100640238440267", "lat": "-40.07009", "lng": "-72.87149", "Oct-17-2020": "1"}, {"location": "Los Silos", "id": "378585982238217", "lat": "-40.118965", "lng": "-72.803705", "Oct-17-2020": "3"}, {"location": "Santiago", "id": "924292008", "lat": "-40.0739675", "lng": "-72.8766325", "Oct-17-2020": "3"}, {"location": "Librer\u00eda Fenicios", "id": "1029318111", "lat": "-40.0667", "lng": "-72.8833", "Oct-17-2020": "1"}, {"location": "Jardin Michel Bachelet Jeria", "id": "879716229", "lat": "-40.07412925", "lng": "-72.87361927", "Oct-17-2020": "3"}, {"location": "APaillaco Region De Los Rios", "id": "1017546841", "lat": "-40.0750512", "lng": "-72.868296", "Oct-17-2020": "2"}, {"location": "Paillaco", "id": "110058110730724", "lat": "-40.0700999", "lng": "-72.87154", "Oct-17-2020": "2"}, {"location": "Restaurante Czischke", "id": "1020345401", "lat": "-40.0759924", "lng": "-72.87230851", "Oct-17-2020": "2"}, {"location": "Terpel Paillaco", "id": "188677296", "lat": "-40.0729609825", "lng": "-72.87713826", "Oct-17-2020": "3"}, {"location": "Los Esteros", "id": "710637553", "lat": "-40.054877", "lng": "-72.871971", "Oct-17-2020": "3"}, {"location": "Cincuentenario", "id": "1015945972", "lat": "-40.0721832", "lng": "-72.86557692", "Oct-17-2020": "1"}, {"location": "Club De Rodeo Paillaco", "id": "132749640188135", "lat": "-40.07871425", "lng": "-72.8724507", "Oct-17-2020": "3"}, {"location": "Galeria Eben Ezer", "id": "1566059567027088", "lat": "-40.0716645", "lng": "-72.8731534", "Oct-17-2020": "2"}, {"location": "Hotel Paillaco", "id": "594188160", "lat": null, "lng": null, "Oct-17-2020": null}, {"location": "Re-crea", "id": "333663400572576", "lat": "-40.0672342092", "lng": "-72.8608989716", "Oct-17-2020": "3"}, {"location": "Casa Belmar", "id": "1030461394", "lat": "-40.0718919", "lng": "-72.8676163", "Oct-17-2020": "3"}, {"location": "Sal\u00f3n de belleza Ange-liz", "id": "1456539497991987", "lat": "-40.0630532", "lng": "-72.8689755", "Oct-17-2020": "3"}, {"location": "La Casita De Lili", "id": "930875000392022", "lat": "-40.0737946472", "lng": "-72.8772762095", "Oct-17-2020": "3"}, {"location": "PuntoPrint.cl", "id": "1273673499311344", "lat": "-40.0716678251", "lng": "-72.8760910034", "Oct-17-2020": "4"}, {"location": "Base Samu Paillaco", "id": "1475202972767635", "lat": "-40.0718386732", "lng": "-72.866819227", "Oct-17-2020": "0"}, {"location": "Starken", "id": "885300615138377", "lat": "-40.0698061", "lng": "-72.8771705", "Oct-17-2020": "0"}, {"location": "Moes Comida", "id": "1779336632394334", "lat": null, "lng": null, "Oct-17-2020": null}, {"location": "Picadura de le\u00f1a", "id": "1869617946688116", "lat": "-40.06744", "lng": "-72.86013", "Oct-17-2020": "2"}, {"location": "Casa Cares Chacon", "id": "1025436820", "lat": "-40.0672601349", "lng": "-72.8718106163", "Oct-17-2020": "3"}, {"location": "Supermercado Asenjo", "id": "1805626113023660", "lat": "-40.0748951", "lng": "-72.869144", "Oct-17-2020": "0"}, {"location": "Cecinas Schwencke", "id": "873233539464482", "lat": "-40.0693918", "lng": "-72.8752853", "Oct-17-2020": "0"}, {"location": "Nuestro Campito", "id": "190373021762386", "lat": "-40.0758323", "lng": "-72.8022243", "Oct-17-2020": "4"}, {"location": "Arco Iris", "id": "871686813", "lat": "-40.0709442655", "lng": "-72.8757378739", "Oct-17-2020": "2"}, {"location": "Spot Hoyo Cincuentenario", "id": "1031845007", "lat": "-40.0717705", "lng": "-72.8659421", "Oct-17-2020": "1"}, {"location": "Calzados y Deportes Cerna", "id": "425858464143503", "lat": "-40.0696332", "lng": "-72.8746356", "Oct-17-2020": "2"}, {"location": "Juzgado de Letras de Paillaco", "id": "269623223740600", "lat": "-40.0699699282", "lng": "-72.8702893597", "Oct-17-2020": "2"}, {"location": "Paillaco en Mi Casa", "id": "548882328", "lat": "-40.0727643333", "lng": "-72.871731", "Oct-17-2020": "2"}, {"location": "Cementerio De Paillaco", "id": "856092788", "lat": "-40.0783483358", "lng": "-72.8653594852", "Oct-17-2020": "2"}, {"location": "New York Discoteque", "id": "370777219661778", "lat": "-40.0712748", "lng": "-72.8689696", "Oct-17-2020": "2"}, {"location": "Escuela Alemana Paillaco", "id": "403181826794884", "lat": "-40.0699245", "lng": "-72.8735929", "Oct-17-2020": "2"}, {"location": "Ruta 5", "id": "366049923487682", "lat": "-40.0701539345", "lng": "-72.86050603", "Oct-17-2020": "2"}, {"location": "Paillaco Fundo El Amanecer", "id": "440103152697890", "lat": "-40.1187045871", "lng": "-72.7621684718", "Oct-17-2020": "3"}, {"location": "Nuestro Hogar Paillaco", "id": "146151945544207", "lat": "-40.078290625", "lng": "-72.8721225", "Oct-17-2020": "2"}, {"location": "El Mirador", "id": "239482289395542", "lat": "-40.0542347085", "lng": "-72.8594188053", "Oct-17-2020": "2"}, {"location": "El Manzano", "id": "1009203354", "lat": "-40.0759147", "lng": "-72.8651097", "Oct-17-2020": "2"}, {"location": "Promixers House", "id": "374496823", "lat": "-40.0712571", "lng": "-72.8733028", "Oct-17-2020": "2"}, {"location": "Mi Camita", "id": "266466813368349", "lat": "-40.07327561", "lng": "-72.86835627", "Oct-17-2020": "2"}, {"location": "Los Lagos", "id": "561827886", "lat": "-40.06177991", "lng": "-72.88496518", "Oct-17-2020": "2"}, {"location": "Medialuna Paillaco", "id": "160565182", "lat": "-40.06708367", "lng": "-72.87519164", "Oct-17-2020": "2"}, {"location": "Primera Compa\u00f1ia De Bomberos Germania Paillaco - Cuartel Provisorio", "id": "1026163639", "lat": "-40.0730564261", "lng": "-72.8713809401", "Oct-17-2020": "2"}, {"location": "Dunkin", "id": "100185424835639", "lat": "-39.8138056", "lng": "-73.2452772", "Oct-17-2020": "2"}, {"location": "Campo Paillaco", "id": "1015944089", "lat": "-40.13143547", "lng": "-72.74389276", "Oct-17-2020": "4"}, {"location": "Itropulli", "id": "343149467", "lat": "-40.07154", "lng": "-72.87205", "Oct-17-2020": "2"}, {"location": "Curimapu", "id": "351854645623735", "lat": "-40.07009", "lng": "-72.87149", "Oct-17-2020": "1"}, {"location": "Entre Amigos", "id": "1024047076", "lat": "-40.069978", "lng": "-72.8719722", "Oct-17-2020": "1"}, {"location": "Paillaco Estacion Ferrocarriles", "id": "456264698229845", "lat": "-40.0710951", "lng": "-72.8774973", "Oct-17-2020": "2"}, {"location": "Donde La Silvita", "id": "851670153", "lat": null, "lng": null, "Oct-17-2020": null}, {"location": "Frutillar", "id": "473372160", "lat": "-40.0723761528", "lng": "-72.87552704", "Oct-17-2020": "2"}, {"location": "De campo y rio", "id": "558223918031544", "lat": "-40.0838422888", "lng": "-72.8642202556", "Oct-17-2020": "2"}, {"location": "El Paso Minimarket", "id": "110775120772321", "lat": "-40.0768096369", "lng": "-72.8718520402", "Oct-17-2020": "1"}, {"location": "Cancha De Carreras El Llolly", "id": "640800649289285", "lat": "-40.0701", "lng": "-72.87154", "Oct-17-2020": "1"}, {"location": "Isla Kem Paillaco", "id": "1028300567", "lat": "-40.0663527", "lng": "-72.86621135", "Oct-17-2020": "3"}, {"location": "Edificio Socoepa", "id": "725535314167615", "lat": "-40.0729431", "lng": "-72.8740312", "Oct-17-2020": "2"}, {"location": "Prov.31", "id": "1498809530222188", "lat": "-40.0697183", "lng": "-72.8697483", "Oct-17-2020": "2"}, {"location": "El Paulino, P", "id": "1035088769", "lat": "-40.0695647114", "lng": "-72.8771275096", "Oct-17-2020": "4"}, {"location": "Cecinas La Martina", "id": "108370800637307", "lat": "-40.0740661733", "lng": "-72.8703221691", "Oct-17-2020": "2"}, {"location": "Play2Win", "id": "1052660421598642", "lat": "null", "lng": "null", "Oct-17-2020": "3"}, {"location": "Santa Rosa", "id": "603271129", "lat": "-40.075525965", "lng": "-72.8727030382", "Oct-17-2020": "2"}, {"location": "Capilla Mar\u00eda Inmaculada", "id": "990784511023437", "lat": "-40.1226166667", "lng": "-72.7735883333", "Oct-17-2020": "2"}, {"location": "Puente Itropulli", "id": "152801608211301", "lat": "-40.1180812391", "lng": "-72.7972404286", "Oct-17-2020": "2"}, {"location": "SAL\u00d3N DEL POLLO", "id": "1279592072097699", "lat": "-40.0730249", "lng": "-72.8660354", "Oct-17-2020": "2"}, {"location": "\u03a0\u03b1\u03ca\u03b3\u03b9\u03ac\u03ba\u03bf", "id": "1565891470359024", "lat": "-40.0666666667", "lng": "-72.8833333333", "Oct-17-2020": "3"}, {"location": "Pampa Perineti", "id": "374220506090672", "lat": "-40.0664189", "lng": "-72.8656665", "Oct-17-2020": "2"}, {"location": "Ngen.Mapu", "id": "106062854443887", "lat": "-40.06744", "lng": "-72.86013", "Oct-17-2020": "1"}, {"location": "Ruta T 206", "id": "1424131137648731", "lat": "-40.070847", "lng": "-72.873391", "Oct-17-2020": "0"}, {"location": "Aka mercado", "id": "1405212696281393", "lat": "-40.0742212", "lng": "-72.8703535", "Oct-17-2020": "1"}, {"location": "Mansi\u00f3n Blue", "id": "722905487", "lat": "-40.0742471", "lng": "-72.8758847", "Oct-17-2020": "3"}, {"location": "Cementerio Paillaco", "id": "1522406597849336", "lat": "-40.0779927761", "lng": "-72.8674781703", "Oct-17-2020": "2"}, {"location": "Conejos Paillaco", "id": "108848614084163", "lat": "-40.07009", "lng": "-72.87149", "Oct-17-2020": "1"}, {"location": "1 era Compa\u00f1\u00eda De Bomberos Germania Paillaco", "id": "362000832", "lat": "-40.0742288539", "lng": "-72.8707551406", "Oct-17-2020": "2"}, {"location": "Terpel Pichirropulli", "id": "768201455", "lat": "-40.09090306", "lng": "-72.8642155314", "Oct-17-2020": "1"}, {"location": "Bazar Siempre Digna", "id": "221215601668364", "lat": "-40.0700999", "lng": "-72.87154", "Oct-17-2020": "3"}, {"location": "Estadio Cincuentenario Paillaco", "id": "1944080042498467", "lat": "-40.0714302063", "lng": "-72.8641815186", "Oct-17-2020": "3"}, {"location": "Terminal de Paillaco", "id": "545035302", "lat": null, "lng": null, "Oct-17-2020": null}, {"location": "Mi Casa, Paillaco.", "id": "1427907780788994", "lat": "-40.0722019", "lng": "-72.8763665", "Oct-17-2020": "0"}, {"location": "Donde Mi T\u00edo Hugito", "id": "1501791456756344", "lat": "-40.0663548924", "lng": "-72.8676179051", "Oct-17-2020": "3"}, {"location": "Coique", "id": "1903139616491943", "lat": "-40.0762185062", "lng": "-72.8726746452", "Oct-17-2020": "1"}, {"location": "Puente Fierro, Paillaco", "id": "1522289908043729", "lat": "-40.065849928", "lng": "-72.8670469299", "Oct-17-2020": "1"}, {"location": "Sushi Okaeri", "id": "198314877232801", "lat": "-40.0766335", "lng": "-72.8707022", "Oct-17-2020": "2"}, {"location": "Gomez Carre\u00f1o Paillaco", "id": "1683745385215609", "lat": "-40.0651275", "lng": "-72.8660941", "Oct-17-2020": "2"}, {"location": "Fundo El Copihue", "id": "173182973419084", "lat": "-40.070847", "lng": "-72.873391", "Oct-17-2020": "2"}, {"location": "Sector Sta. Rosa. Paillaco", "id": "2132585673657941", "lat": "-40.0700999", "lng": "-72.87154", "Oct-17-2020": "3"}, {"location": "Casino Municipal Paillaco", "id": "1936568333333808", "lat": "-40.0726492834", "lng": "-72.8705834167", "Oct-17-2020": "2"}, {"location": "Paillaco, Valdivia", "id": "919133308", "lat": "-40.0645739012", "lng": "-72.8692781925", "Oct-17-2020": "2"}, {"location": "Restaurante Y Hospedaje Chambry", "id": "221881194610014", "lat": "-40.0616014588", "lng": "-72.8595471382", "Oct-17-2020": "1"}, {"location": "Entrelagos", "id": "173457299378353", "lat": "-40.0695174", "lng": "-72.8768101881", "Oct-17-2020": "1"}, {"location": "En Mi Casa Paillaco", "id": "263450263830819", "lat": "-40.0684374646", "lng": "-72.8725985735", "Oct-17-2020": "1"}, {"location": "Casita Paillaquina", "id": "222728541187931", "lat": "-40.0599755929", "lng": "-72.8866052628", "Oct-17-2020": "1"}, {"location": "Terminal De Buses,paillaco", "id": "271303810114961", "lat": "-40.0728173876", "lng": "-72.874261725", "Oct-17-2020": "1"}, {"location": "Pac-Man Delivery en paillaco", "id": "314113185805349", "lat": "-40.0694031", "lng": "-72.8694274", "Oct-17-2020": "1"}, {"location": "Unimarc", "id": "288892914599283", "lat": "-40.07072", "lng": "-72.8734", "Oct-17-2020": "2"}, {"location": "Ex Fundo Las Vegas", "id": "290052944363745", "lat": "-40.048245", "lng": "-72.87419", "Oct-17-2020": "0"}, {"location": "Mi Casa", "id": "1016208127", "lat": "-40.072254", "lng": "-72.876838", "Oct-17-2020": "1"}, {"location": "Camino A Paillaco", "id": "307056823129809", "lat": "-40.0691325", "lng": "-72.8744683", "Oct-17-2020": "1"}, {"location": "En Casita", "id": "258960497489900", "lat": "-40.0656854", "lng": "-72.8737868", "Oct-17-2020": "0"}, {"location": "Jard\u00edn Infantil Violeta Parra", "id": "288874518710737", "lat": "-40.0669222", "lng": "-72.8700467", "Oct-17-2020": "1"}, {"location": "Lomaflor Propiedades", "id": "328821681042201", "lat": "-40.0733236", "lng": "-72.8743365", "Oct-17-2020": "0"}, {"location": "Terminal Paillaco", "id": "271242893224110", "lat": "-40.0728", "lng": "-72.8742416667", "Oct-17-2020": "1"}, {"location": "Pesca Mosca Patagonia Sur - Aguas Tranquilas", "id": "352805551428596", "lat": "-40.0667", "lng": "-72.8833", "Oct-17-2020": "1"}, {"location": "Cafeter\u00eda & Pasteler\u00eda Black Paillaco", "id": "249538782105516", "lat": "-40.0719348", "lng": "-72.8730231", "Oct-17-2020": "1"}, {"location": "Carrito Comidas Rapidas El Rudo", "id": "303586056897041", "lat": "-40.07616", "lng": "-72.8703", "Oct-17-2020": "0"}, {"location": "Camino a Osorno", "id": "893757146", "lat": "-40.0770308", "lng": "-72.8693648", "Oct-17-2020": "1"}, {"location": "GVA", "id": "101014271534138", "lat": "-40.06744", "lng": "-72.86013", "Oct-17-2020": "1"}, {"location": "Bariloche", "id": "635790256", "lat": "-40.0764834833", "lng": "-72.8678297833", "Oct-17-2020": "1"}, {"location": "El Huerto de Jos\u00e9", "id": "318525958748280", "lat": "-40.0751778", "lng": "-72.8695385", "Oct-17-2020": "0"}, {"location": "Libreriashekinah", "id": "357689651554028", "lat": "null", "lng": "null", "Oct-17-2020": "0"}, {"location": "Terminal Valdivia", "id": "195078650598921", "lat": "-40.074799", "lng": "-72.873103", "Oct-17-2020": "0"}, {"location": "Iglesia Catolica De Paillaco", "id": "1019078750", "lat": "-40.0667", "lng": "-72.8833", "Oct-17-2020": "1"}, {"location": "TODO ES POSIBLE", "id": "268865636535236", "lat": "-40.07009", "lng": "-72.87149", "Oct-17-2020": "1"}, {"location": "Gimnasio Municipal De Paillaco", "id": "294499107656178", "lat": "-40.0695543", "lng": "-72.8668056", "Oct-17-2020": "1"}, {"location": "Suplementos Vida Saludable", "id": "298143217042485", "lat": "-40.074169", "lng": "-72.8690567", "Oct-17-2020": "0"}, {"location": "LookBook Paillaco", "id": "381281011", "lat": null, "lng": null, "Oct-17-2020": null}, {"location": "Restaurant Fuente de Aguas", "id": "250058608508710", "lat": "-40.071308136", "lng": "-72.8729629517", "Oct-17-2020": "1"}, {"location": "En Casa De Los Papa", "id": "447336465405291", "lat": "-40.066821", "lng": "-72.8670677", "Oct-17-2020": "1"}, {"location": "Pesebreras Pub-Night Club", "id": "420733974675553", "lat": "-40.0696859781", "lng": "-72.8792967358", "Oct-17-2020": "1"}, {"location": "La gran tiendita del tio Carlos", "id": "397497447294902", "lat": "-40.0699202", "lng": "-72.8702317", "Oct-17-2020": "1"}, {"location": "Mansi\u00f3n De Andrea Gomez", "id": "365242567229779", "lat": "-40.0389665", "lng": "-72.8479189", "Oct-17-2020": "1"}, {"location": "Balmaceda 867", "id": "413425465930220", "lat": "-40.0704376", "lng": "-72.8746255", "Oct-17-2020": "1"}, {"location": "Artesanias blancartes", "id": "1017327604", "lat": "-40.0628357", "lng": "-72.8703461", "Oct-17-2020": "1"}, {"location": "Mafil", "id": "755085430", "lat": "-40.0372083812", "lng": "-72.846358853", "Oct-17-2020": "1"}, {"location": "Liceo R.A.P Paillaco", "id": "292656530", "lat": "-40.0697071175", "lng": "-72.8665187024", "Oct-17-2020": "1"}, {"location": "Club De Pesca Y Caza Paillaco", "id": "79813556", "lat": "-40.0757413052", "lng": "-72.8753609599", "Oct-17-2020": "1"}, {"location": "DulceCita Pasteleria", "id": "356895764769936", "lat": "-40.0747426", "lng": "-72.8729643", "Oct-17-2020": "1"}, {"location": "Departamento De Educacion Municipal Paillaco", "id": "373254439376287", "lat": "-40.0734598213", "lng": "-72.8737083378", "Oct-17-2020": "0"}, {"location": "Terminal Paillaco", "id": "424525667624390", "lat": "-40.0729929098", "lng": "-72.8743480022", "Oct-17-2020": "0"}, {"location": "Jardin Beeello Beeello", "id": "338806526975698", "lat": "null", "lng": "null", "Oct-17-2020": "1"}, {"location": "Cl\u00ednica Veterinaria Fuentesilva", "id": "301412340287665", "lat": "-40.0722207", "lng": "-72.8729107", "Oct-17-2020": "1"}, {"location": "Automotriz Valdicar", "id": "274435196402246", "lat": "-40.0730249", "lng": "-72.8660666", "Oct-17-2020": "0"}, {"location": "Villa Valle Hermoso", "id": "423265311062096", "lat": "-40.0663851", "lng": "-72.8654837", "Oct-17-2020": "1"}, {"location": "Juzgado De Letras, Garantia Y Familia De Paillaco", "id": "413470899027180", "lat": "-40.0711774334", "lng": "-72.8710020254", "Oct-17-2020": "1"}, {"location": "Ropa Americana", "id": "277316379733113", "lat": "-40.0722248", "lng": "-72.870575", "Oct-17-2020": "1"}, {"location": "Rotary Club Paillaco.", "id": "310794485763944", "lat": "-40.07002", "lng": "-72.86928", "Oct-17-2020": "1"}, {"location": "Escuela Rural Manao", "id": "417563145690776", "lat": "-40.0711", "lng": "-72.74933", "Oct-17-2020": "1"}, {"location": "Rio Lloyelhue, Itropulli", "id": "262307800563406", "lat": "-40.07754", "lng": "-72.86282", "Oct-17-2020": "2"}, {"location": "Escuela Especial De Lenguaje Abracadabra", "id": "363710647077279", "lat": "-40.0681323", "lng": "-72.8737678", "Oct-17-2020": "0"}, {"location": "Directo Al Grano", "id": "356939115098276", "lat": "null", "lng": "null", "Oct-17-2020": "1"}, {"location": "Escuela Particular Adonai", "id": "394052421228321", "lat": "-40.0771446228", "lng": "-72.7960662842", "Oct-17-2020": "1"}, {"location": "Patrimonio Barrio Plazuela Berl\u00edn", "id": "462420201172045", "lat": "null", "lng": "null", "Oct-17-2020": "0"}, {"location": "Las conichas", "id": "434910580313067", "lat": "-40.0711475", "lng": "-72.8767215", "Oct-17-2020": "1"}, {"location": "Club Deportivo Liceo", "id": "100211284917314", "lat": "null", "lng": "null", "Oct-17-2020": "2"}, {"location": "Consultorio Paillaco", "id": "120275655537374", "lat": "-40.0663206253", "lng": "-72.8695396585", "Oct-17-2020": "0"}, {"location": "Chancholandia", "id": "1016994981", "lat": "-40.0656927", "lng": "-72.8652738", "Oct-17-2020": "1"}, {"location": "Tercer Tiempo Paillaco", "id": "553600178082764", "lat": "-40.0726571102", "lng": "-72.8721860337", "Oct-17-2020": "1"}, {"location": "Paillaco Valdivia.", "id": "450725579059995", "lat": "-40.0700115", "lng": "-72.8703853", "Oct-17-2020": "2"}, {"location": "Servicio De Registro Civil E Identificacion Paillaco", "id": "517930448265449", "lat": "-40.0699409713", "lng": "-72.8731236803", "Oct-17-2020": "0"}, {"location": "Feria Ganaderos", "id": "453972937997936", "lat": "-40.0639726605", "lng": "-72.8581090035", "Oct-17-2020": "1"}, {"location": "Pailla Coffee", "id": "518628262297603", "lat": "-40.0702702454", "lng": "-72.8732235472", "Oct-17-2020": "1"}, {"location": "Juzgado De Policia Local Paillaco", "id": "557788447649984", "lat": "-40.0710745", "lng": "-72.8764736", "Oct-17-2020": "1"}, {"location": "Ex Internado Del Liceo", "id": "623214107712341", "lat": "-40.0740478553", "lng": "-72.8733453136", "Oct-17-2020": "1"}, {"location": "Casa De Gogo", "id": "458516840876810", "lat": "-40.0696141002", "lng": "-72.8772493782", "Oct-17-2020": "1"}, {"location": "Rodeo Paillaco", "id": "1031966448", "lat": "-40.0695475", "lng": "-72.8664625", "Oct-17-2020": "1"}, {"location": "Arco Iris", "id": "874817636", "lat": "-40.10109734", "lng": "-72.81935163", "Oct-17-2020": "1"}, {"location": "Parrilla la italia", "id": "880464442052409", "lat": null, "lng": null, "Oct-17-2020": null}, {"location": "Tur Bus // Starken Paillaco", "id": "610661022746327", "lat": "-40.0698061", "lng": "-72.8771405", "Oct-17-2020": "0"}, {"location": "Terreno Villa Newen Suyai", "id": "643650702682209", "lat": "-40.06201", "lng": "-72.8727", "Oct-17-2020": "4"}, {"location": "Departamento Social Municipalidad Paillaco", "id": "389173161121472", "lat": "-40.06926", "lng": "-72.8744", "Oct-17-2020": "0"}, {"location": "Turismo Paillaco", "id": "539025629585329", "lat": "null", "lng": "null", "Oct-17-2020": "1"}, {"location": "Camino Itropulli", "id": "490389667662981", "lat": "-40.1111912667", "lng": "-72.8061819", "Oct-17-2020": "1"}, {"location": "Jard\u00edn Infantil Relmu Wepul", "id": "441221256680089", "lat": "-40.06426", "lng": "-72.86623", "Oct-17-2020": "0"}, {"location": "Parroquia Nuestra Se\u00f1ora De Lourdes", "id": "585205588171800", "lat": "-40.0699694113", "lng": "-72.8726578313", "Oct-17-2020": "1"}, {"location": "Viky", "id": "106169594430206", "lat": "-40.0646551", "lng": "-72.8722689", "Oct-17-2020": "1"}, {"location": "Restorant La caba\u00f1a Paillaco", "id": "110341203880575", "lat": "-40.0717006656", "lng": "-72.8748357296", "Oct-17-2020": "0"}, {"location": "Fundo Las Juntas ,paillaco.", "id": "1031166536", "lat": "-40.0745773315", "lng": "-72.8694839478", "Oct-17-2020": "1"}, {"location": "Lovelystore Valdivia Yasmin Keith", "id": "1017247561", "lat": "-40.075789187", "lng": "-72.8724753857", "Oct-17-2020": "1"}, {"location": "Restobar Km 858 Cerveza Artesanal", "id": "686217015", "lat": "-40.0698801", "lng": "-72.8610784", "Oct-17-2020": "1"}, {"location": "Dejavu Pub", "id": "223283974", "lat": "-40.0655645552", "lng": "-72.8608352043", "Oct-17-2020": "2"}, {"location": "Cafe Restaurant Jordis", "id": "808518995848996", "lat": "-40.0710742", "lng": "-72.8775179", "Oct-17-2020": "1"}, {"location": "En Mi Casa Calentita", "id": "579643388804000", "lat": "-40.0664681791", "lng": "-72.8656006947", "Oct-17-2020": "2"}, {"location": "Valdivia FOOD", "id": "866506480049700", "lat": "-40.0739403", "lng": "-72.8701324", "Oct-17-2020": "1"}, {"location": "Fotos y cuadernos", "id": "727301564066571", "lat": null, "lng": null, "Oct-17-2020": null}, {"location": "Delicias De Valdivia", "id": "1396062567367369", "lat": null, "lng": null, "Oct-17-2020": null}, {"location": "Notaria", "id": "722442614512508", "lat": "-40.0729203", "lng": "-72.87413245", "Oct-17-2020": "0"}, {"location": "La Frida", "id": "105297354562322", "lat": "-40.07009", "lng": "-72.87149", "Oct-17-2020": "1"}, {"location": "Coffe K", "id": "1290165904393791", "lat": "-40.0733028", "lng": "-72.8735983", "Oct-17-2020": "1"}, {"location": "\ud30c\uc774\uc57c\ucf54", "id": "910723412344207", "lat": "-40.0666666667", "lng": "-72.8833333333", "Oct-17-2020": "1"}, {"location": "PME", "id": "882658891916363", "lat": "-40.06744", "lng": "-72.86014", "Oct-17-2020": "1"}, {"location": "Paillaco Calluman", "id": "544221388933377", "lat": "-40.0315332245", "lng": "-72.8368940299", "Oct-17-2020": "1"}, {"location": "Playa San Pedro, Regi\u00f3n De Los Rios", "id": "537243926685495", "lat": "-40.0738104", "lng": "-72.8768371", "Oct-17-2020": "1"}, {"location": "Federacion Chilena De Taekwondo Jidokwan", "id": "103711274561820", "lat": "-40.0694824", "lng": "-72.8771621", "Oct-17-2020": "2"}, {"location": "Region De Los Rios", "id": "134970710026220", "lat": "-40.0728878193", "lng": "-72.869341476", "Oct-17-2020": "1"}, {"location": "\u00c1rbol de la Poes\u00eda", "id": "1546186805670433", "lat": "-40.0731933", "lng": "-72.8699093", "Oct-17-2020": "1"}, {"location": "Ambiente Mujica", "id": "866502410104338", "lat": "-40.0730067", "lng": "-72.8728064", "Oct-17-2020": "1"}, {"location": "Itropulli, Paillaco", "id": "710370999146864", "lat": "-40.070847", "lng": "-72.873391", "Oct-17-2020": "1"}, {"location": "Arturo Prat", "id": "807628226", "lat": "-40.07247325", "lng": "-72.87240875", "Oct-17-2020": "1"}, {"location": "Carretera 5 Sur", "id": "498629697", "lat": "-40.0748542857", "lng": "-72.8661042857", "Oct-17-2020": "1"}, {"location": "Chambry", "id": "443372765717345", "lat": "-40.06744", "lng": "-72.86014", "Oct-17-2020": "1"}, {"location": "Amasander\u00eda y Panaderia", "id": "650214828450191", "lat": "-40.0670145", "lng": "-72.8721854", "Oct-17-2020": "0"}, {"location": "Centro Medico Paillaco.", "id": "532132483962282", "lat": "-40.0711378", "lng": "-72.8724926", "Oct-17-2020": "0"}, {"location": "Comuna De Paillaco, Regi\u00f3n De Los R\u00edos", "id": "105628834509158", "lat": "-40.0700999", "lng": "-72.87154", "Oct-17-2020": "1"}, {"location": "Donde Mi Papito Lito Paillaco", "id": "656493191072852", "lat": "-40.066662015", "lng": "-72.877690605", "Oct-17-2020": "1"}, {"location": "Jard\u00edn Infantil Y Sala Cuna Paillaquito", "id": "966541296712944", "lat": "-40.0659964", "lng": "-72.8672883", "Oct-17-2020": "2"}, {"location": "Organizaciones Comunitarias Paillaco", "id": "1651452038439035", "lat": "-40.0715525", "lng": "-72.8719595", "Oct-17-2020": "1"}, {"location": "Club Deportivo \u00ab21 de Mayo\u00bb Itropulli", "id": "1629545193975988", "lat": "-40.0700999", "lng": "-72.87154", "Oct-17-2020": "0"}, {"location": "Construye Mejor mejorando tu vivir", "id": "112620926781700", "lat": "null", "lng": "null", "Oct-17-2020": "1"}, {"location": "Sal\u00f3n Beauty Chic", "id": "153731961493250", "lat": "-40.0665416", "lng": "-72.8655571998", "Oct-17-2020": "1"}, {"location": "Business Strategies", "id": "114220940370604", "lat": "-40.06744", "lng": "-72.86013", "Oct-17-2020": "1"}, {"location": "Wapissima", "id": "1683323045129626", "lat": "-40.0733028", "lng": "-72.8735983", "Oct-17-2020": "1"}, {"location": "Semana Paillaquina", "id": "1549249812011995", "lat": "-40.0699136", "lng": "-72.8689879", "Oct-17-2020": "3"}, {"location": "Comuna De Paillaco, Regi\u00f3n De Los R\u00edos", "id": "106677171065321", "lat": "-40.0700999", "lng": "-72.87154", "Oct-17-2020": "1"}, {"location": "Wasser Fitness", "id": "1652157765049529", "lat": "-40.0717356", "lng": "-72.8731496", "Oct-17-2020": "1"}, {"location": "Hendaya Sucursal Paillaco", "id": "879057338824600", "lat": "-40.0698620851", "lng": "-72.8737209365", "Oct-17-2020": "1"}, {"location": "Korcat peluqueria", "id": "197124477497897", "lat": "-40.0710602726", "lng": "-72.865383625", "Oct-17-2020": "0"}, {"location": "860sur", "id": "104341184462419", "lat": "-40.07009", "lng": "-72.87149", "Oct-17-2020": "0"}, {"location": "Colegio El Llolly", "id": "143847989490264", "lat": "-40.070847", "lng": "-72.873391", "Oct-17-2020": "1"}, {"location": "Municipalidad De Paillaco", "id": "29025188", "lat": "-40.0701000296", "lng": "-72.8732195152", "Oct-17-2020": "1"}, {"location": "Rio Bueno", "id": "563315296", "lat": null, "lng": null, "Oct-17-2020": null}, {"location": "Fruter\u00eda fe\u00f1ita", "id": "930834393667976", "lat": "-40.074743", "lng": "-72.8679132", "Oct-17-2020": "1"}, {"location": "Botilleria La Previa Paillaco", "id": "1732587096983725", "lat": "-40.0687821", "lng": "-72.8762771", "Oct-17-2020": "0"}, {"location": "Come Como Loco", "id": "804695569585366", "lat": "-40.07101806", "lng": "-72.87246113", "Oct-17-2020": "1"}, {"location": "Cafeteria Y Pasteleria Black", "id": "1150967841629980", "lat": "-40.07072", "lng": "-72.8734", "Oct-17-2020": "1"}, {"location": "Cementerio Paillaco", "id": "158302251381577", "lat": "-40.0780032334", "lng": "-72.8672679333", "Oct-17-2020": "1"}, {"location": "Boutique Americana Fashion Family Paillaco", "id": "2011912169120610", "lat": null, "lng": null, "Oct-17-2020": null}, {"location": "La Fabrica Melodica", "id": "360569804144579", "lat": "-40.0646238", "lng": "-72.8725865", "Oct-17-2020": "1"}, {"location": "Juventud Libertad", "id": "104719067556809", "lat": "null", "lng": "null", "Oct-17-2020": "2"}, {"location": "En Oasis", "id": "230926327066270", "lat": "-40.0712533901", "lng": "-72.8739133012", "Oct-17-2020": "1"}, {"location": "Cafeter\u00eda Y Pasteler\u00eda Black", "id": "1033571297", "lat": "-40.0667", "lng": "-72.8833", "Oct-17-2020": "0"}, {"location": "Cortinas Alebea", "id": "1971379319817864", "lat": "-40.06744", "lng": "-72.86013", "Oct-17-2020": "1"}, {"location": "Corporacion De Asistencia Judicial, Paillaco", "id": "224817564373663", "lat": "-40.0718131", "lng": "-72.8757022", "Oct-17-2020": "1"}, {"location": "Hospital Paillaco-Urgencia", "id": "2867990603227664", "lat": "-40.07184248", "lng": "-72.86666702", "Oct-17-2020": "1"}, {"location": "Cementerio General de Paillaco.", "id": "287990421318184", "lat": "-40.077729", "lng": "-72.866148", "Oct-17-2020": "1"}, {"location": "Oruga m\u00eda", "id": "175203006642809", "lat": "-40.06744", "lng": "-72.86014", "Oct-17-2020": "2"}, {"location": "Green Bar", "id": "746667594", "lat": "-40.0721271961", "lng": "-72.8771998707", "Oct-17-2020": "1"}, {"location": "Servisep", "id": "1787960871466695", "lat": "-40.0700999", "lng": "-72.87154", "Oct-17-2020": "1"}, {"location": "Salon Pablo Ag\u00fcero, Pail\u00f1aco", "id": "1522555354704491", "lat": "-40.0716167", "lng": "-72.8718304", "Oct-17-2020": "1"}, {"location": "Capilla Maria Inmaculada, Itro", "id": "2134376823310744", "lat": "-40.07009", "lng": "-72.87149", "Oct-17-2020": "1"}, {"location": "Servicentro La Cascada Ruta 5 Sur Paillaco", "id": "2042236145860693", "lat": "-40.0838890076", "lng": "-72.864440918", "Oct-17-2020": "1"}, {"location": "Brilla El Sol - Paillaco", "id": "1506130246293940", "lat": "-40.07009", "lng": "-72.87149", "Oct-17-2020": "1"}, {"location": "Farmacia plaza Paillaco", "id": "1681828985407689", "lat": "-40.0667", "lng": "-72.8833", "Oct-17-2020": "1"}, {"location": "Pichirropulli Cementerio", "id": "1717910161585028", "lat": "-40.070847", "lng": "-72.873391", "Oct-17-2020": "1"}, {"location": "Servicios Funerarios Yaeger Paillaco", "id": "1371050456276807", "lat": "-40.0732567", "lng": "-72.8721908", "Oct-17-2020": "0"}, {"location": "Enerpa Paillaco", "id": "229061877224336", "lat": "-40.0776772433", "lng": "-72.86294218", "Oct-17-2020": "1"}, {"location": "Skatepark Paillaco", "id": "2590998537617911", "lat": "-40.0689062957", "lng": "-72.8689231536", "Oct-17-2020": "2"}, {"location": "Full Ahorro", "id": "1823984681171693", "lat": "-40.0733858", "lng": "-72.876386", "Oct-17-2020": "1"}, {"location": "El Cami\u00f3n de la Le\u00f1a", "id": "2092154441021589", "lat": "-40.0661741", "lng": "-72.8764275", "Oct-17-2020": "1"}, {"location": "Feria Ganadera Paillaco", "id": "183258485214971", "lat": "-40.0626099", "lng": "-72.8749725", "Oct-17-2020": "1"}, {"location": "Restaurant Las Brisas", "id": "1023040858", "lat": "-40.0727275", "lng": "-72.8721269", "Oct-17-2020": "1"}, {"location": "Liceo Rap", "id": "309112437", "lat": "-40.0690778", "lng": "-72.8665464", "Oct-17-2020": "1"}, {"location": "Cancha Itropulli", "id": "697422623", "lat": "-40.08370504", "lng": "-72.85261262", "Oct-17-2020": "1"}, {"location": "Santiago De Chile", "id": "450140015", "lat": "-40.0752471", "lng": "-72.8673743", "Oct-17-2020": "1"}, {"location": "Fiesta Del Cordero", "id": "182405432", "lat": "-40.068516369", "lng": "-72.869433381", "Oct-17-2020": "1"}]