[{"location": "Panguipulli, Chile", "id": "214686933", "lat": "-39.64226", "lng": "-72.33346", "Oct-17-2020": "130115"}, {"location": "Reserva biol\u00f3gica Huilo Huilo", "id": "450275488366090", "lat": "-39.6533725455", "lng": "-72.3231814545", "Oct-17-2020": "23037"}, {"location": "Panguipulli, Region De Los Rios", "id": "388094168204758", "lat": "-39.6426623298", "lng": "-72.3308531741", "Oct-17-2020": "24326"}, {"location": "Lago Panguipulli, Regi\u00f3n De Los R\u00edos, Sector De Los Siete Lagos.", "id": "260449541", "lat": "-39.6442098282", "lng": "-72.3361234387", "Oct-17-2020": "12335"}, {"location": "Panguipulli Sietelagos", "id": "982454835188270", "lat": "-39.6416360778", "lng": "-72.3330402374", "Oct-17-2020": "10514"}, {"location": "Chauqu\u00e9n, Panguipulli", "id": "241029312", "lat": "-39.682816836", "lng": "-72.271027565", "Oct-17-2020": "8131"}, {"location": "Huilo Huilo. La reserva biol\u00f3gica del sur del mundo", "id": "906616359546518", "lat": null, "lng": null, "Oct-17-2020": null}, {"location": "Playa Chauquen", "id": "140048093353798", "lat": "-39.6794685546", "lng": "-72.3079314348", "Oct-17-2020": "4243"}, {"location": "Choshuenco, Lago Panguipulli", "id": "2030719897149267", "lat": "-39.643669", "lng": "-72.33459", "Oct-17-2020": "3278"}, {"location": "Lago Panguipulli", "id": "6158504", "lat": "-39.642719974", "lng": "-72.331345114", "Oct-17-2020": "2409"}, {"location": "Playa Monje, Panguipulli", "id": "222980704", "lat": "-39.7125342773", "lng": "-72.3471661164", "Oct-17-2020": "2638"}, {"location": "Panguipulli, Regi\u00f3n De Los R\u00edos", "id": "557101190", "lat": "-39.6449266813", "lng": "-72.3430066251", "Oct-17-2020": "1820"}, {"location": "Lago Panguipull, Playa Chauquen", "id": "288188226", "lat": "-39.6801170495", "lng": "-72.3084178228", "Oct-17-2020": "1756"}, {"location": "Playa de Panguipulli", "id": "296497132", "lat": "-39.6433623692", "lng": "-72.3190545109", "Oct-17-2020": "1705"}, {"location": "Costanera Panguipulli", "id": "517095418627813", "lat": "-39.643001129", "lng": "-72.327166546", "Oct-17-2020": "1920"}, {"location": "Glaciar Pichillancahue", "id": "1024941598", "lat": "-39.64041", "lng": "-72.32258", "Oct-17-2020": "1803"}, {"location": "Casona Cultural de Panguipulli", "id": "428120458", "lat": "-39.6410251", "lng": "-72.3355352", "Oct-17-2020": "1301"}, {"location": "Calafqu\u00e9n", "id": "217200036", "lat": "-39.57138889", "lng": "-72.24722222", "Oct-17-2020": "1198"}, {"location": "Huilo Huilo Selva Patagonica", "id": "1469885683117588", "lat": null, "lng": null, "Oct-17-2020": null}, {"location": "Costanera Panguipulli", "id": "8658564", "lat": "-39.6435930003", "lng": "-72.3246564658", "Oct-17-2020": "921"}, {"location": "Sur De Chile", "id": "724261812", "lat": "-39.6410164433", "lng": "-72.33133771", "Oct-17-2020": "936"}, {"location": "Huilo Huilo, Sendero De Los Espiritus", "id": "1788581104545545", "lat": "-39.64222736", "lng": "-72.32823148", "Oct-17-2020": "1112"}, {"location": "Parque Nacional Huilo Huilo", "id": "288027189", "lat": "-39.6424717725", "lng": "-72.3295397", "Oct-17-2020": "839"}, {"location": "Choshuenco", "id": "216241618", "lat": "-39.64226", "lng": "-72.33346", "Oct-17-2020": "787"}, {"location": "Puerto Fuy", "id": "312317723", "lat": "-39.6412737336", "lng": "-72.3277809099", "Oct-17-2020": "792"}, {"location": "Pullinque", "id": "124745298345155", "lat": "-39.63993", "lng": "-72.3206", "Oct-17-2020": "865"}, {"location": "Lago Panguipulli, Chile", "id": "1029036494", "lat": "-39.64041", "lng": "-72.32258", "Oct-17-2020": "696"}, {"location": "Playa Panguipulli", "id": "303463530176534", "lat": "-39.6436027", "lng": "-72.3191357", "Oct-17-2020": "954"}, {"location": "Puerto Fuy, Regi\u00f3n De Los Lagos", "id": "558775179", "lat": "-39.644081185", "lng": "-72.3362511076", "Oct-17-2020": "741"}, {"location": "Liceo People Help People", "id": "172646512784691", "lat": "-39.6383650306", "lng": "-72.3239126612", "Oct-17-2020": "777"}, {"location": "Discoteque Thecity Multiespacio #Panguipulli", "id": "168328429854479", "lat": "null", "lng": "null", "Oct-17-2020": "650"}, {"location": "Lago Chauquen", "id": "331428120685177", "lat": "-39.6486539", "lng": "-72.341988", "Oct-17-2020": "671"}, {"location": "Panguipulli Lake, Chile", "id": "1654208387934664", "lat": "-39.6448614376", "lng": "-72.3379594374", "Oct-17-2020": "545"}, {"location": "Panguipulli, Regi\u00f3n De Los Rios", "id": "213690957", "lat": "-39.6425025432", "lng": "-72.3325792811", "Oct-17-2020": "521"}, {"location": "Liceo Gastron\u00f3mico People Help People", "id": "240619280", "lat": "-39.6383522585", "lng": "-72.3237621383", "Oct-17-2020": "534"}, {"location": "Neltume", "id": "1028914671", "lat": "-39.68283", "lng": "-72.32935", "Oct-17-2020": "557"}, {"location": "El Lago Licanray", "id": "1632622640321849", "lat": "-39.493020172", "lng": "-72.1576854396", "Oct-17-2020": "550"}, {"location": "Plaza De Panguipulli", "id": "437371917", "lat": "-39.6421331428", "lng": "-72.3330571765", "Oct-17-2020": "406"}, {"location": "Feria Costumbrista Hua-Hum Panguipulli", "id": "583428079", "lat": "-39.6425831845", "lng": "-72.3185875671", "Oct-17-2020": "410"}, {"location": "Lago Calafquen", "id": "1028291084", "lat": "-39.51802", "lng": "-72.14706", "Oct-17-2020": "407"}, {"location": "Iglesia san Sebastian Panguipulli", "id": "1952234718361973", "lat": "-39.6416321357", "lng": "-72.3342853107", "Oct-17-2020": "497"}, {"location": "Salto del Huilo Huilo", "id": "1013696435", "lat": "-39.64198276", "lng": "-72.322803465", "Oct-17-2020": "385"}, {"location": "Salto Huilo Huilo", "id": "217616783", "lat": "-39.64291685", "lng": "-72.329925", "Oct-17-2020": "363"}, {"location": "Muelle Panguipulli", "id": "492989391203913", "lat": "-39.6438171423", "lng": "-72.3235881329", "Oct-17-2020": "415"}, {"location": "Rio Fuy, Reserva Nacional Huilo Huilo", "id": "924442098", "lat": "-39.6421775755", "lng": "-72.3362625802", "Oct-17-2020": "346"}, {"location": "Linoico", "id": "1015621072", "lat": "-39.6422615", "lng": "-72.3334579", "Oct-17-2020": "205"}, {"location": "Melefquen", "id": "109388693812486", "lat": "-39.6432059", "lng": "-72.3371369", "Oct-17-2020": "398"}, {"location": "Vogue Panguipulli", "id": "574451086", "lat": "-39.6567170018", "lng": "-72.35703717", "Oct-17-2020": "377"}, {"location": "Lago Calafquen", "id": "250658479", "lat": "-39.6420670251", "lng": "-72.3328119999", "Oct-17-2020": "320"}, {"location": "Liceo Bicentenario De Excelencia Altamira", "id": "652311618312026", "lat": "-39.635029095", "lng": "-72.3442261843", "Oct-17-2020": "411"}, {"location": "Costanera de Panguipulli", "id": "2091222967583573", "lat": "-39.6436483768", "lng": "-72.3262993579", "Oct-17-2020": "224"}, {"location": "Huilo Huilo", "id": "253869162", "lat": "-39.642394856", "lng": "-72.3325465907", "Oct-17-2020": "289"}, {"location": "Panguipulli (centro)", "id": "456882988", "lat": "-39.6422291885", "lng": "-72.332671576", "Oct-17-2020": "281"}, {"location": "Sendero filcumpulli", "id": "232231620513831", "lat": "-39.64226", "lng": "-72.33346", "Oct-17-2020": "356"}, {"location": "Parroquia San Sebastian", "id": "288122476", "lat": "-39.6413868365", "lng": "-72.3339367425", "Oct-17-2020": "245"}, {"location": "Playa Chauquen", "id": "433650464", "lat": "-39.6803193814", "lng": "-72.3087568209", "Oct-17-2020": "231"}, {"location": "Hotel Casa Panguipulli", "id": "981474690", "lat": "-39.6545507888", "lng": "-72.327933083", "Oct-17-2020": "243"}, {"location": "Restaurant 480", "id": "554230191636061", "lat": "-39.6436188666", "lng": "-72.3262917995", "Oct-17-2020": "278"}, {"location": "Playa Toledo, Panguipulli", "id": "892753165", "lat": "-39.6445631489", "lng": "-72.3380502014", "Oct-17-2020": "250"}, {"location": "Liceo Altamira de panguipulli", "id": "669104239", "lat": "-39.6352746614", "lng": "-72.3441995171", "Oct-17-2020": "194"}, {"location": "Gimnasio Polideportivo Panguipulli", "id": "371894306573303", "lat": "-39.6381014", "lng": "-72.340729", "Oct-17-2020": "251"}, {"location": "Siete Lago Panguipulli", "id": "361450464", "lat": "-39.6402434616", "lng": "-72.3216821525", "Oct-17-2020": "208"}, {"location": "Coihueco Beach", "id": "553376421", "lat": "-39.64297635", "lng": "-72.32329625", "Oct-17-2020": "199"}, {"location": "Mirador Rucatregua", "id": "610328644", "lat": "-39.64342095", "lng": "-72.33334364", "Oct-17-2020": "193"}, {"location": "Liceo Padre Sigisfredo", "id": "656749624", "lat": "-39.6415821679", "lng": "-72.3338930961", "Oct-17-2020": "205"}, {"location": "Patagonia Natural", "id": "39340798", "lat": "-39.64298565", "lng": "-72.3212425", "Oct-17-2020": "211"}, {"location": "Terminal de buses Panguipulli", "id": "68942951", "lat": "-39.6442120313", "lng": "-72.3363511462", "Oct-17-2020": "190"}, {"location": "L\u00e1cteos Chauqu\u00e9n-Carretera Lanco/Panguipulli Km. 7", "id": "240125317", "lat": "-39.63554", "lng": "-72.33041", "Oct-17-2020": "201"}, {"location": "Hotel Restaurant La Escuela", "id": "321358671", "lat": "-39.642607334", "lng": "-72.332555272", "Oct-17-2020": "216"}, {"location": "Feria Costumbrista Panguipulli", "id": "541077376314977", "lat": "-39.6427390728", "lng": "-72.3185274421", "Oct-17-2020": "256"}, {"location": "Ciudad de Panguipulli", "id": "247964347", "lat": "-39.643525548", "lng": "-72.3430464195", "Oct-17-2020": "212"}, {"location": "Circuito Siete Lagos; Puerto Fuy; Panguipulli", "id": "648023204", "lat": "-39.64218609", "lng": "-72.3335015429", "Oct-17-2020": "171"}, {"location": "Hospital Panguipulli", "id": "16051276", "lat": "-39.6405733", "lng": "-72.3424792", "Oct-17-2020": "170"}, {"location": "Panguilelfun", "id": "237965989687576", "lat": "-39.6884774", "lng": "-72.40847665", "Oct-17-2020": "236"}, {"location": "Rio San Pedro", "id": "606011847", "lat": "-39.64196831", "lng": "-72.32863559", "Oct-17-2020": "145"}, {"location": "Fundacion Hospital Panguipulli", "id": "894696497283006", "lat": "-39.6405570561", "lng": "-72.3425373576", "Oct-17-2020": "162"}, {"location": "Parroquia San Sebastian , Panguipulli", "id": "327807824380079", "lat": "-39.6412057464", "lng": "-72.3347433247", "Oct-17-2020": "180"}, {"location": "El Mirador", "id": "252576544", "lat": "-39.642939", "lng": "-72.3403634", "Oct-17-2020": "171"}, {"location": "Terminal De Buses Panguipulli", "id": "1990683681147601", "lat": "-39.6442168592", "lng": "-72.3363468988", "Oct-17-2020": "118"}, {"location": "Barenco Pub", "id": "445056368", "lat": "-39.6426210942", "lng": "-72.3267105626", "Oct-17-2020": "149"}, {"location": "Escuela Manuel Anabal\u00f3n S\u00e1ez", "id": "1021979951", "lat": "-39.645611148", "lng": "-72.3400304489", "Oct-17-2020": "183"}, {"location": "Corporaci\u00f3n Panguipulli", "id": "110529566293675", "lat": "-39.6410823668", "lng": "-72.3400405269", "Oct-17-2020": "162"}, {"location": "Apart Hotel Puchaley Lafquen", "id": "558195184", "lat": "-39.6538583399", "lng": "-72.3233061566", "Oct-17-2020": "153"}, {"location": "Puki\u00f1e", "id": "513943664", "lat": "-39.6792384", "lng": "-72.3084154", "Oct-17-2020": "136"}, {"location": "Barenco", "id": "370223443156120", "lat": "-39.642618838", "lng": "-72.326714842", "Oct-17-2020": "150"}, {"location": "Puerto Pirihueico", "id": "939965344", "lat": "-39.64359733", "lng": "-72.33266649", "Oct-17-2020": "133"}, {"location": "Beauty So Chic", "id": "425165044575587", "lat": "-39.6428288", "lng": "-72.3299471", "Oct-17-2020": "143"}, {"location": "Hotel 381 Panguipulli", "id": "776896252468022", "lat": "-39.6410247064", "lng": "-72.3273539543", "Oct-17-2020": "127"}, {"location": "Nueva Moda Panguipulli", "id": "294161818198646", "lat": "-39.6438015", "lng": "-72.3337088", "Oct-17-2020": "125"}, {"location": "Chauquen", "id": "402728016", "lat": "-39.6799343965", "lng": "-72.3087110014", "Oct-17-2020": "129"}, {"location": "Escuela MAG Panguipulli", "id": "178873915912623", "lat": "-39.6415651", "lng": "-72.3309637", "Oct-17-2020": "157"}, {"location": "Huerquehue, Panguipulli", "id": "493320582", "lat": "-39.6441141", "lng": "-72.3354906", "Oct-17-2020": "123"}, {"location": "Lago Chauquen", "id": "62876711", "lat": "-39.6792496151", "lng": "-72.3081223996", "Oct-17-2020": "114"}, {"location": "Paso Fronterizo Hua-Hum", "id": "547167798", "lat": "-39.6416347", "lng": "-72.33295505", "Oct-17-2020": "116"}, {"location": "Polideportivo Panguipulli", "id": "282359440", "lat": "-39.6381709759", "lng": "-72.3407171033", "Oct-17-2020": "119"}, {"location": "Pangui", "id": "415952738", "lat": "-39.6435750071", "lng": "-72.3347145537", "Oct-17-2020": "104"}, {"location": "Sabores del Chauquen", "id": "596283477396692", "lat": null, "lng": null, "Oct-17-2020": null}, {"location": "Pucura Alto y Mili Mili", "id": "277838829215613", "lat": "-39.6333", "lng": "-72.3333", "Oct-17-2020": "110"}, {"location": "Chauquen (Lago Panguipulli)", "id": "1024551328", "lat": "-39.67920598", "lng": "-72.30674323", "Oct-17-2020": "100"}, {"location": "Lago Panguipulli", "id": "119620068690110", "lat": "-39.644271405", "lng": "-72.336256347", "Oct-17-2020": "107"}, {"location": "Gardylafquen", "id": "471836908", "lat": "-39.6425894505", "lng": "-72.3320384915", "Oct-17-2020": "120"}, {"location": "ruta Panguipulli T-39", "id": "1033204025", "lat": "-39.68283", "lng": "-72.37719", "Oct-17-2020": "115"}, {"location": "Camino A Neltume", "id": "857158548", "lat": "-39.6424552", "lng": "-72.3227843", "Oct-17-2020": "101"}, {"location": "Niltre, Panguipulli", "id": "1015717950", "lat": "-39.6421952", "lng": "-72.33144875", "Oct-17-2020": "123"}, {"location": "EcoParque Tralcapulli", "id": "552524221", "lat": "-39.64226", "lng": "-72.33346", "Oct-17-2020": "59"}, {"location": "Cheuquen", "id": "1986010391721552", "lat": "-39.6798113035", "lng": "-72.3088336364", "Oct-17-2020": "119"}, {"location": "Chaura - Panguipulli", "id": "1028671526", "lat": "-39.6420414", "lng": "-72.33310375", "Oct-17-2020": "111"}, {"location": "Neltume", "id": "260441458", "lat": "-39.6429667755", "lng": "-72.3215257116", "Oct-17-2020": "97"}, {"location": "Muestra Costumbrista Hua Hum", "id": "577409407", "lat": "-39.6436676303", "lng": "-72.3262203589", "Oct-17-2020": "51"}, {"location": "AWG - Athletic World Gym Panguipulli", "id": "1287409441365121", "lat": "-39.6422353", "lng": "-72.3276433", "Oct-17-2020": "122"}, {"location": "Playa Panguipulli", "id": "31884588", "lat": "-39.6430873707", "lng": "-72.318927804", "Oct-17-2020": "91"}, {"location": "Lican Ray", "id": "213436698", "lat": "-39.63892528", "lng": "-72.32865138", "Oct-17-2020": "80"}, {"location": "Florencia Pizzeria Panguipulli", "id": "1487040344762646", "lat": "-39.642162", "lng": "-72.328233", "Oct-17-2020": "87"}, {"location": "Co\u00f1aripe, Salto Del Buey", "id": "553903938", "lat": "-39.6449466", "lng": "-72.3349485", "Oct-17-2020": "81"}, {"location": "Caf\u00e9 Momentos", "id": "1022043554", "lat": "-39.6422772", "lng": "-72.3316135", "Oct-17-2020": "83"}, {"location": "Le Streghe", "id": "832776816", "lat": "-39.6421099", "lng": "-72.3282453", "Oct-17-2020": "85"}, {"location": "Tralcapulli", "id": "556249736", "lat": "-39.6429089132", "lng": "-72.3226503201", "Oct-17-2020": "89"}, {"location": "Centro Educativo Fernando Santiv\u00e1n", "id": "282046645482245", "lat": "-39.6387444089", "lng": "-72.3269462585", "Oct-17-2020": "114"}, {"location": "Lago Neltume", "id": "1025198519", "lat": "-39.65562", "lng": "-72.30652", "Oct-17-2020": "80"}, {"location": "Panguipulli - Lago Chauquen", "id": "1024783232", "lat": "-39.679133", "lng": "-72.306992", "Oct-17-2020": "83"}, {"location": "Cerro Pitren", "id": "943761173", "lat": "-39.6381171", "lng": "-72.3327004", "Oct-17-2020": "86"}, {"location": "Destinosietelagos", "id": "815515238841695", "lat": "-39.63554", "lng": "-72.33041", "Oct-17-2020": "47"}, {"location": "The King Barber Panguipulli", "id": "105184847534862", "lat": "-39.6420083", "lng": "-72.3292661", "Oct-17-2020": "188"}, {"location": "Reserva San Pablo De Tregua", "id": "599767810055533", "lat": "-39.642723", "lng": "-72.32329", "Oct-17-2020": "83"}, {"location": "Charlys Coffee", "id": "1258262050968735", "lat": "-39.6411899424", "lng": "-72.3354005814", "Oct-17-2020": "99"}, {"location": "Bah\u00eda Panguipulli", "id": "485047088537307", "lat": "-39.66281", "lng": "-72.32789", "Oct-17-2020": "105"}, {"location": "Cafeter\u00eda La Fama", "id": "1783351961932299", "lat": "-39.642880728", "lng": "-72.3275193419", "Oct-17-2020": "85"}, {"location": "Club De Pesca Y Caza Amancay Panguipulli", "id": "501130670", "lat": "-39.63554", "lng": "-72.33041", "Oct-17-2020": "42"}, {"location": "Municipalidad de Panguipulli", "id": "1017430712", "lat": "-39.641670553", "lng": "-72.332266601", "Oct-17-2020": "66"}, {"location": "Liceo Fernando Santivan", "id": "504706943", "lat": "-39.6392119747", "lng": "-72.3268603666", "Oct-17-2020": "63"}, {"location": "Tienda Oficios Panguipulli", "id": "262880924141655", "lat": "-39.640909041", "lng": "-72.3353791237", "Oct-17-2020": "83"}, {"location": "Termas Geometricas", "id": "549749204", "lat": "-39.6419976", "lng": "-72.3290177", "Oct-17-2020": "65"}, {"location": "Puyehue (Panguipulli)", "id": "656862234489704", "lat": "-39.663056", "lng": "-72.387778", "Oct-17-2020": "64"}, {"location": "Cultruncahue", "id": "934825891", "lat": "-39.6435514667", "lng": "-72.3430166667", "Oct-17-2020": "70"}, {"location": "Villa Los Presidentes Panguipulli", "id": "265928755", "lat": "-39.6356822845", "lng": "-72.3306401828", "Oct-17-2020": "49"}, {"location": "Chauquen", "id": "8685856", "lat": "-39.6800963164", "lng": "-72.3091968479", "Oct-17-2020": "66"}, {"location": "Complejo Educacional Altamira", "id": "1032721633", "lat": "-39.6416902542", "lng": "-72.3328800201", "Oct-17-2020": "74"}, {"location": "Gimnasio Olympo", "id": "180898459386269", "lat": "-39.6453857756", "lng": "-72.3339647989", "Oct-17-2020": "66"}, {"location": "Iglesia Panguipulli", "id": "452062461", "lat": "-39.6410251", "lng": "-72.3355352", "Oct-17-2020": "70"}, {"location": "Liceo Bicentenario De Exelencia Altamira", "id": "257292531", "lat": "-39.6355568003", "lng": "-72.3446505505", "Oct-17-2020": "64"}, {"location": "Siete Lagos Travesias", "id": "326385791102729", "lat": "-39.6418503", "lng": "-72.3308809", "Oct-17-2020": "105"}, {"location": "Restaurant Chapul\u00edn", "id": "1019255811", "lat": "-39.642728243", "lng": "-72.3309036665", "Oct-17-2020": "65"}, {"location": "Instituto Profesional Ipg", "id": "445551938951159", "lat": "-39.6382347428", "lng": "-72.3238260301", "Oct-17-2020": "65"}, {"location": "Escuela Maria Alvarado Garay", "id": "476294388", "lat": "-39.6415434801", "lng": "-72.3307103269", "Oct-17-2020": "66"}, {"location": "El Hincha Pelotas", "id": "930052898", "lat": null, "lng": null, "Oct-17-2020": null}, {"location": "Sublime Sushi & Coffee", "id": "551990998", "lat": "-39.6431459933", "lng": "-72.3277497559", "Oct-17-2020": "57"}, {"location": "Ruta Siete Lagos Panguipulli", "id": "1751553271828724", "lat": "-39.6393564", "lng": "-72.3237385", "Oct-17-2020": "67"}, {"location": "Centro Educacional San Sebastian, Panguipulli", "id": "656861851", "lat": "-39.6418378", "lng": "-72.3347634", "Oct-17-2020": "57"}, {"location": "Hotel Casa Panguipulli", "id": "482962132", "lat": "-39.6535296277", "lng": "-72.3079390638", "Oct-17-2020": "54"}, {"location": "Estadio Municipal Panguipulli", "id": "591903945", "lat": "-39.6376827243", "lng": "-72.3385096316", "Oct-17-2020": "58"}, {"location": "Restobar Oveja Negra", "id": "1024224812", "lat": "-39.6436275818", "lng": "-72.32696592", "Oct-17-2020": "60"}, {"location": "Escuela Especial de Lenguaje Rayito de Luz", "id": "404463489748841", "lat": "-39.647382803", "lng": "-72.3321507677", "Oct-17-2020": "100"}, {"location": "Reserva Nacional Huilo Huilo", "id": "941858786", "lat": "-39.6531698", "lng": "-72.3245051", "Oct-17-2020": "60"}, {"location": "La Pe\u00f1a, Lanco.", "id": "928517703951884", "lat": "-39.6427044", "lng": "-72.3408476", "Oct-17-2020": "52"}, {"location": "La Felsinea", "id": "1726059970973904", "lat": "-39.6408068072", "lng": "-72.3300390017", "Oct-17-2020": "52"}, {"location": "Panguipulli", "id": "267797485", "lat": "-39.6450542669", "lng": "-72.3432515999", "Oct-17-2020": "58"}, {"location": "R\u00edo Fuy Expediciones", "id": "288616468", "lat": null, "lng": null, "Oct-17-2020": null}, {"location": "Panguipulli, Lomas De Quilaco", "id": "554690050", "lat": "-39.64007346", "lng": "-72.34272296", "Oct-17-2020": "26"}, {"location": "Playa Chauquen Panguipulli", "id": "1017441431", "lat": "-39.67977067", "lng": "-72.3092267", "Oct-17-2020": "51"}, {"location": "Parque Nacional Villarica", "id": "934264173", "lat": "-39.639656277", "lng": "-72.3236860247", "Oct-17-2020": "53"}, {"location": "La Casita De Inna Panguipulli", "id": "226747311097353", "lat": "-39.63518", "lng": "-72.32702", "Oct-17-2020": "134"}, {"location": "Escuela Claudio Arrau Le\u00f3n", "id": "482829738765056", "lat": "-39.6354486242", "lng": "-72.3433733223", "Oct-17-2020": "59"}, {"location": "Aer\u00f3dromo De Panguipulli", "id": "603686039", "lat": "-39.65304925", "lng": "-72.3573697167", "Oct-17-2020": "52"}, {"location": "Los Tayos", "id": "591938254", "lat": "-39.6396952", "lng": "-72.3213835", "Oct-17-2020": "54"}, {"location": "Gelateria Entre Volcanes", "id": "509192570", "lat": "-39.6429090029", "lng": "-72.3304196162", "Oct-17-2020": "53"}, {"location": "Panguipulli Ancacomoe", "id": "1018264438", "lat": "-39.6358918001", "lng": "-72.3256334503", "Oct-17-2020": "51"}, {"location": "Rio Huenehue", "id": "625475985", "lat": "-39.641435", "lng": "-72.3295681", "Oct-17-2020": "57"}, {"location": "Rucatrehua", "id": "1025370428", "lat": "-39.6333", "lng": "-72.3333", "Oct-17-2020": "51"}, {"location": "Puyumen Panguipulli", "id": "1027371646", "lat": "-39.6791100797", "lng": "-72.2809054478", "Oct-17-2020": "53"}, {"location": "Ladys Home, Panguipulli, Chile", "id": "1029466913", "lat": "-39.639545685", "lng": "-72.33579342", "Oct-17-2020": "52"}, {"location": "Gimnasio Municipal de Panguipulli", "id": "263452868", "lat": "-39.641731073", "lng": "-72.332270939", "Oct-17-2020": "50"}, {"location": "Termas Pellaifa, Co\u00f1aripe", "id": "304421969955710", "lat": "-39.6438291752", "lng": "-72.32829415", "Oct-17-2020": "57"}, {"location": "Ri\u00f1imapu", "id": "234236136661984", "lat": "-39.63544997", "lng": "-72.34457813", "Oct-17-2020": "60"}, {"location": "Coihueco Beaccch", "id": "583066594", "lat": "-39.6435333", "lng": "-72.334688", "Oct-17-2020": "59"}, {"location": "Fundo Puyumen", "id": "1028048339", "lat": "-39.6393972", "lng": "-72.3231429", "Oct-17-2020": "53"}, {"location": "Desag\u00fce Rio San Pedro Lago Ri\u00f1ihue", "id": "620858555", "lat": "-39.6381420487", "lng": "-72.3291899264", "Oct-17-2020": "51"}, {"location": "Cesfam Panguipulli", "id": "17874855", "lat": "-39.6434881821", "lng": "-72.3371256071", "Oct-17-2020": "46"}, {"location": "My house =)", "id": "1022424874", "lat": "-39.6394852955", "lng": "-72.32313319", "Oct-17-2020": "51"}, {"location": "Panguilelf\u00fan", "id": "708810942651822", "lat": "-39.678333", "lng": "-72.417222", "Oct-17-2020": "32"}, {"location": "Espacio Trafkintuwe, Panguipulli", "id": "1505417843067404", "lat": "-39.6442403763", "lng": "-72.3367234724", "Oct-17-2020": "50"}, {"location": "Liceo Agricola y Forestal People Help People Pullinque", "id": "181084047628", "lat": "-39.64226", "lng": "-72.33346", "Oct-17-2020": "61"}, {"location": "Music On Club", "id": "339484286591852", "lat": "null", "lng": "null", "Oct-17-2020": "47"}, {"location": "Desahue Ri\u00f1ihue", "id": "1023558152", "lat": "-39.6416091", "lng": "-72.3371777", "Oct-17-2020": "35"}, {"location": "Playa Chauquen- Lago Panguipulli", "id": "614699685", "lat": "-39.68101574", "lng": "-72.30939955", "Oct-17-2020": "40"}, {"location": "Krizzia Sweet Boutique", "id": "286797560", "lat": "-39.6433149674", "lng": "-72.3222096451", "Oct-17-2020": "48"}, {"location": "chauquen/panguipulli/chile.", "id": "1022116152", "lat": "-39.677348825", "lng": "-72.324586155", "Oct-17-2020": "42"}, {"location": "Casa Panguipulli", "id": "277935950", "lat": "-39.6406810034", "lng": "-72.323447159", "Oct-17-2020": "48"}, {"location": "Restaurante , helader\u00eda y cafeter\u00eda murta", "id": "436744443762166", "lat": "-39.6426857", "lng": "-72.3306518", "Oct-17-2020": "45"}, {"location": "Pullinque", "id": "622853598", "lat": "-39.6403575274", "lng": "-72.3233879869", "Oct-17-2020": "54"}, {"location": "Poblacion Manuel Rodriguez", "id": "666848929", "lat": "-39.63729167", "lng": "-72.326975835", "Oct-17-2020": "41"}, {"location": "Lago Chosuenco", "id": "499653617", "lat": "-39.64208", "lng": "-72.33184", "Oct-17-2020": "45"}, {"location": "Poblacion Lolquellen Panguipulli", "id": "588027754", "lat": "-39.6422382833", "lng": "-72.3408741", "Oct-17-2020": "40"}, {"location": "CasaLimpia Panguipulli", "id": "103770891415561", "lat": "-39.6435427197", "lng": "-72.3319165164", "Oct-17-2020": "21"}, {"location": "Camino Puerto Fuy", "id": "1025567688", "lat": "-39.6405371643", "lng": "-72.3390420521", "Oct-17-2020": "41"}, {"location": "\u00d1e\u00f1is House", "id": "414296056", "lat": "-39.644837", "lng": "-72.332843", "Oct-17-2020": "22"}, {"location": "Mamacocha", "id": "650112798719740", "lat": "-39.6431890558", "lng": "-72.3291040181", "Oct-17-2020": "28"}, {"location": "Isla De Panguipulli", "id": "577452832", "lat": "-39.6567699666", "lng": "-72.3015981798", "Oct-17-2020": "45"}, {"location": "Caba\u00f1as Viejo Roble, Panguipulli", "id": "235822069", "lat": "-39.6537076", "lng": "-72.3213572", "Oct-17-2020": "44"}, {"location": "Playa Chauquen", "id": "491237789", "lat": "-39.6802922515", "lng": "-72.3088511105", "Oct-17-2020": "48"}, {"location": "Bar maria Insolente", "id": "101925768041008", "lat": "-39.642542596", "lng": "-72.3263897002", "Oct-17-2020": "20"}, {"location": "R\u00edo Llanquihue, Panguipulli", "id": "638951053", "lat": "-39.64223229", "lng": "-72.3359337", "Oct-17-2020": "37"}, {"location": "Cancha De Aviacion", "id": "1140406192654431", "lat": "-39.6591915016", "lng": "-72.3597601657", "Oct-17-2020": "46"}, {"location": "Segunda Compa\u00f1\u00eda Bomba Luis Armando Cofre Cofre", "id": "793395094135679", "lat": "-39.6462716997", "lng": "-72.3317671862", "Oct-17-2020": "29"}, {"location": "Huitag", "id": "1028631336", "lat": "-39.6407458", "lng": "-72.3335937833", "Oct-17-2020": "47"}, {"location": "As Producciones", "id": "256940328118635", "lat": "null", "lng": "null", "Oct-17-2020": "38"}, {"location": "Hotel Escuela People Help People", "id": "321360028", "lat": "-39.642607334", "lng": "-72.332555272", "Oct-17-2020": "38"}, {"location": "Central de Alarmas y Comunicaciones Cuerpo de Bomberos Panguipulli", "id": "1760090624318691", "lat": "-39.641667425", "lng": "-72.3313233833", "Oct-17-2020": "33"}, {"location": "Mirador Isla Gabriela", "id": "308248962", "lat": "-39.6442434", "lng": "-72.3440069", "Oct-17-2020": "36"}, {"location": "Villa Portal Del Sol", "id": "371826952909323", "lat": "-39.6431023", "lng": "-72.32168339", "Oct-17-2020": "36"}, {"location": "Panguipulli Restaurant Hincha Pelotas", "id": "1709566952592377", "lat": "-39.643435625", "lng": "-72.327600735", "Oct-17-2020": "36"}, {"location": "Trafun", "id": "395357410515469", "lat": "-39.63554", "lng": "-72.33041", "Oct-17-2020": "53"}, {"location": "Ruta Siete Lagos", "id": "554466085", "lat": "-39.64284393", "lng": "-72.33033518", "Oct-17-2020": "31"}, {"location": "Maximus Gym", "id": "1321633541200922", "lat": "-39.6421098417", "lng": "-72.3293350216", "Oct-17-2020": "23"}, {"location": "Co\u00f1aripe", "id": "422022763", "lat": "-39.64579725", "lng": "-72.34063945", "Oct-17-2020": "33"}, {"location": "Casa Salud - Medicina Integral", "id": "293645381062235", "lat": "-39.6410207536", "lng": "-72.3313410584", "Oct-17-2020": "34"}, {"location": "Estadio Municipal De Panguipulli", "id": "871341953042686", "lat": "-39.6373792", "lng": "-72.3381739", "Oct-17-2020": "43"}, {"location": "Camino A Choshuenco", "id": "708292911", "lat": "-39.6433999364", "lng": "-72.3222808912", "Oct-17-2020": "36"}, {"location": "Playa Mirador Toledo", "id": "986347216", "lat": "-39.6708903817", "lng": "-72.2765503907", "Oct-17-2020": "29"}, {"location": "Plaza Bernardo O Higgins", "id": "172897166981820", "lat": "-39.6412242547", "lng": "-72.3323646507", "Oct-17-2020": "30"}, {"location": "feliiworks", "id": "154251082250", "lat": "-39.6401913", "lng": "-72.3213516", "Oct-17-2020": "15"}, {"location": "Playa Chauquen", "id": "1525369160895574", "lat": "-39.677942", "lng": "-72.3067503", "Oct-17-2020": "39"}, {"location": "Playa Chauquen", "id": "163100524463469", "lat": "-39.6428615", "lng": "-72.3330456", "Oct-17-2020": "37"}, {"location": "Casona Cultural, Panguipulli", "id": "331871480", "lat": "-39.6410251", "lng": "-72.3355352", "Oct-17-2020": "31"}, {"location": "Kiosko La Ruka", "id": "2475481192685316", "lat": "-39.6433714", "lng": "-72.3315087", "Oct-17-2020": "42"}, {"location": "Pullinque", "id": "895474217", "lat": "-39.6354027", "lng": "-72.325391", "Oct-17-2020": "27"}, {"location": "Diego Portales 108", "id": "241400233198783", "lat": "-39.6429482", "lng": "-72.3343917", "Oct-17-2020": "52"}, {"location": "Lago Pirehueico", "id": "1959034784411995", "lat": "-39.6442412", "lng": "-72.3363346", "Oct-17-2020": "34"}, {"location": "Reserva Natural Calfuhan", "id": "493115561200952", "lat": null, "lng": null, "Oct-17-2020": null}, {"location": "Rinconada Chauquen km 1, Panguipulli, Chile.", "id": "298745570228252", "lat": "-39.66848816", "lng": "-72.29895402", "Oct-17-2020": "21"}, {"location": "Futa, Corral", "id": "1441306809432620", "lat": "-39.6415092757", "lng": "-72.3313689721", "Oct-17-2020": "20"}, {"location": "Estadio Municipal De Panguipulli", "id": "701433223567430", "lat": "-39.6376207563", "lng": "-72.3384797573", "Oct-17-2020": "44"}, {"location": "Sublime Sushi Bar", "id": "315685358955162", "lat": "-39.6432719125", "lng": "-72.3276209813", "Oct-17-2020": "36"}, {"location": "Comercial Llaima Panguipulli", "id": "257949604863871", "lat": "null", "lng": "null", "Oct-17-2020": "41"}, {"location": "Puyehu\u00e9", "id": "174837452711846", "lat": "-39.63554", "lng": "-72.33041", "Oct-17-2020": "24"}, {"location": "Puerto Fuy, Chile", "id": "234642115", "lat": "-39.642338", "lng": "-72.317582", "Oct-17-2020": "27"}, {"location": "Mosquitos", "id": "617616978413196", "lat": "-39.6420048218", "lng": "-72.3297993315", "Oct-17-2020": "47"}, {"location": "Paguipulli, Valdivia, Chile", "id": "965152741", "lat": "-39.6429419357", "lng": "-72.327819605", "Oct-17-2020": "27"}, {"location": "Club De Tenis Panguipulli", "id": "764960965", "lat": "-39.6431510868", "lng": "-72.3255130087", "Oct-17-2020": "30"}, {"location": "Feliiworks House", "id": "430644070660681", "lat": null, "lng": null, "Oct-17-2020": null}, {"location": "La Casona Renovada", "id": "767005600", "lat": "-39.6441114333", "lng": "-72.3336293", "Oct-17-2020": "27"}, {"location": "Copec Panguipulli", "id": "50790919", "lat": "-39.642190908", "lng": "-72.3326877515", "Oct-17-2020": "23"}, {"location": "Restaurant Porvenir, Lago Panguipulli", "id": "1028661113", "lat": "-39.6431971796", "lng": "-72.3294071002", "Oct-17-2020": "27"}, {"location": "Quincho y Centro de eventos Las Gaviotas.", "id": "955052241282432", "lat": "-39.8791810756", "lng": "-73.1747817993", "Oct-17-2020": "43"}, {"location": "Escuela Pampa \u00d1ancul N66", "id": "1021582253", "lat": "null", "lng": "null", "Oct-17-2020": "33"}, {"location": "Trilogy Tours", "id": "1493157254284307", "lat": "-39.64250595", "lng": "-72.3203579103", "Oct-17-2020": "29"}, {"location": "Sector Traitraico", "id": "519162391555450", "lat": "-39.6333", "lng": "-72.3333", "Oct-17-2020": "20"}, {"location": "Fundo Entre Lagos , Panguipulli", "id": "242407612974003", "lat": "-39.643669", "lng": "-72.33459", "Oct-17-2020": "20"}, {"location": "Faldas Volcan Villarrica", "id": "1025804290", "lat": "-39.67936401", "lng": "-72.30661011", "Oct-17-2020": "30"}, {"location": "Gimnasio Municipal Panguipulli", "id": "206085946569807", "lat": "-39.6415953962", "lng": "-72.3323154834", "Oct-17-2020": "33"}, {"location": "Gimnasio Municipal Panguipulli", "id": "1777428412548686", "lat": "-39.6414116002", "lng": "-72.3314516001", "Oct-17-2020": "21"}, {"location": "Beauty So Chic", "id": "278366049655664", "lat": "-39.6567051", "lng": "-72.3607021", "Oct-17-2020": "26"}, {"location": "Lago Panguii", "id": "375440799148084", "lat": "-39.678219", "lng": "-72.306535", "Oct-17-2020": "24"}, {"location": "Fendell House", "id": "615644495", "lat": "-39.63938666", "lng": "-72.32289371", "Oct-17-2020": "12"}, {"location": "Club Escuela Deportes N\u00e1uticos Panguipulli", "id": "1012601532", "lat": null, "lng": null, "Oct-17-2020": null}, {"location": "Lago Calafqu\u00e9n, Playa Las Monjas", "id": "1025412583", "lat": "-39.6333", "lng": "-72.3333", "Oct-17-2020": "22"}, {"location": "Bot\u00e1nica Gourmet", "id": "1794755234158056", "lat": "-39.6436669556", "lng": "-72.330558251", "Oct-17-2020": "32"}, {"location": "Sector Rural Malchehue", "id": "918105083", "lat": "-39.6448067054", "lng": "-72.3461270705", "Oct-17-2020": "23"}, {"location": "Cesfam Panguipulli", "id": "126547088049078", "lat": "-39.6434869482", "lng": "-72.3371278222", "Oct-17-2020": "15"}, {"location": "Sector Palguin", "id": "1032594366", "lat": "-39.6433259001", "lng": "-72.3496695499", "Oct-17-2020": "20"}, {"location": "Playa Grande Panguipulli", "id": "577679012", "lat": "-39.64352833", "lng": "-72.3186894667", "Oct-17-2020": "23"}, {"location": "Cementerio Panguipulli", "id": "42174632", "lat": "-39.6370706943", "lng": "-72.3420544873", "Oct-17-2020": "23"}, {"location": "Ichiraku Ramen Delivery", "id": "217075849141347", "lat": "null", "lng": "null", "Oct-17-2020": "32"}, {"location": "Panguipulli, X Region", "id": "938733938", "lat": "-39.643762", "lng": "-72.3316389", "Oct-17-2020": "21"}, {"location": "Casa De Jesse Y Caupito", "id": "1022315046", "lat": "-39.6441009", "lng": "-72.3329106", "Oct-17-2020": "18"}, {"location": "Sala Cuna Y Jard\u00edn Infantil Kupulwe", "id": "980727235423342", "lat": "-39.6359782", "lng": "-72.3430725", "Oct-17-2020": "33"}, {"location": "Curaco, Panguipulli", "id": "1032137547", "lat": "-39.6333", "lng": "-72.3333", "Oct-17-2020": "24"}, {"location": "Iglesia. CTUE Panguipulli", "id": "638626017", "lat": "-39.64354007", "lng": "-72.330223908", "Oct-17-2020": "24"}, {"location": "Termas Hip\u00f3lito Mu\u00f1oz. Liqui\u00f1e", "id": "1044812202311095", "lat": "-39.6396336", "lng": "-72.3252188", "Oct-17-2020": "29"}, {"location": "Sangucher\u00eda - Cervecer\u00eda 40&20", "id": "416494629092055", "lat": "-39.643656", "lng": "-72.3276053", "Oct-17-2020": "34"}, {"location": "Playa Coihueco", "id": "737950349563162", "lat": "-39.658615", "lng": "-72.3033875", "Oct-17-2020": "21"}, {"location": "Rafting Conecta Patagonia", "id": "677055892430719", "lat": "-39.64226", "lng": "-72.33346", "Oct-17-2020": "41"}, {"location": "Melefquen", "id": "127695124585364", "lat": "-39.6382924", "lng": "-72.3242399", "Oct-17-2020": "26"}, {"location": "Cementerio Panguipulli", "id": "264301990942030", "lat": "-39.6360873089", "lng": "-72.3424445945", "Oct-17-2020": "19"}, {"location": "Fisiodermo: Kinesiolog\u00eda y Dermoest\u00e9tica", "id": "430983490597037", "lat": "-39.6429744664", "lng": "-72.3330616951", "Oct-17-2020": "23"}, {"location": "restaurante la casona renovada", "id": "1011006567", "lat": "-39.6441256463", "lng": "-72.3337137898", "Oct-17-2020": "21"}, {"location": "Roble Huacho", "id": "263801304219627", "lat": "-39.6469254196", "lng": "-72.3324398049", "Oct-17-2020": "23"}, {"location": "Laderas De Puyumen", "id": "8741849", "lat": "-39.6796831023", "lng": "-72.2737003864", "Oct-17-2020": "21"}, {"location": "Centro de Salud 7Lagos", "id": "218798871849868", "lat": "-39.64041", "lng": "-72.32258", "Oct-17-2020": "25"}, {"location": "Panguipulli Region De Los Rios", "id": "921932935", "lat": "-39.6416603", "lng": "-72.32284175", "Oct-17-2020": "22"}, {"location": "Mi Casa en Panguipulli", "id": "149038848567954", "lat": "-39.6397811208", "lng": "-72.3211018509", "Oct-17-2020": "21"}, {"location": "Caba\u00f1as Taique Panguipulli", "id": "1014541590", "lat": "-39.647289", "lng": "-72.3428371", "Oct-17-2020": "24"}, {"location": "Camino a Huerquehue", "id": "671070471", "lat": "-39.6414117", "lng": "-72.3293001", "Oct-17-2020": "19"}, {"location": "Disco Vogue", "id": "574392743", "lat": "-39.65661422", "lng": "-72.3578116", "Oct-17-2020": "20"}, {"location": "Camping Malchehue", "id": "1836207659966915", "lat": "-39.64165", "lng": "-72.33734", "Oct-17-2020": "29"}, {"location": "Termas Vergara", "id": "926942546", "lat": "-39.642911", "lng": "-72.3440671", "Oct-17-2020": "18"}, {"location": "The City", "id": "18941073", "lat": "-39.636219468", "lng": "-72.3186310076", "Oct-17-2020": "18"}, {"location": "Hospital Padre Bernabe De Lucern Panguipulli", "id": "179966385972488", "lat": "-39.6406300968", "lng": "-72.3425637445", "Oct-17-2020": "32"}, {"location": "Casa Obando", "id": "547111822015110", "lat": "-39.64363384", "lng": "-72.33054371", "Oct-17-2020": "20"}, {"location": "Termas El Rincon Conaripe", "id": "1023219476", "lat": "-39.6414968712", "lng": "-72.3324398249", "Oct-17-2020": "17"}, {"location": "Claudio Arrau Leon", "id": "1015161690", "lat": "-39.6354796553", "lng": "-72.343567087", "Oct-17-2020": "16"}, {"location": "Restaurante Florencia Panguipulli", "id": "294752274445259", "lat": "-39.6421954667", "lng": "-72.3281185778", "Oct-17-2020": "19"}, {"location": "Restaurante El Mirador Panguipulli,", "id": "634589639", "lat": "-39.6429306069", "lng": "-72.3400759455", "Oct-17-2020": "18"}, {"location": "ECO CHIC Panguipulli", "id": "113390220214084", "lat": "-39.637185", "lng": "-72.3297643", "Oct-17-2020": "75"}, {"location": "Caba\u00f1as Rinconada Chauqu\u00e9n - Panguipulli", "id": "1017311334", "lat": "-39.6855250187", "lng": "-72.3113250732", "Oct-17-2020": "20"}, {"location": "La Llar Hostel", "id": "524908787973081", "lat": "-39.6440458", "lng": "-72.3356567", "Oct-17-2020": "21"}, {"location": "Gasco Panguipulli", "id": "117530848911953", "lat": "-39.6417738", "lng": "-72.3286609", "Oct-17-2020": "21"}, {"location": "Saltos Del Petrohue", "id": "956508978", "lat": "-39.6429064229", "lng": "-72.3244581386", "Oct-17-2020": "16"}, {"location": "Costanera Panguipulli", "id": "2014753298755081", "lat": "-39.64424573", "lng": "-72.33363297", "Oct-17-2020": "18"}, {"location": "Lubricentro Leoncito.", "id": "285599542243340", "lat": "-39.643021", "lng": "-72.3368199", "Oct-17-2020": "26"}, {"location": "Km 7,5 camino Panguipulli a los Lagos", "id": "1301063656578442", "lat": "-39.64041", "lng": "-72.32258", "Oct-17-2020": "20"}, {"location": "Mister Roll", "id": "1024550920", "lat": "-39.6422733434", "lng": "-72.3341927417", "Oct-17-2020": "13"}, {"location": "Hotel Koyan", "id": "1196609020424608", "lat": "-39.64022644", "lng": "-72.3508722649", "Oct-17-2020": "19"}, {"location": "Ystralar", "id": "1974477115963399", "lat": "null", "lng": "null", "Oct-17-2020": "14"}, {"location": "Hostal Portal Huahum", "id": "693656647376751", "lat": "-39.6333", "lng": "-72.3333", "Oct-17-2020": "21"}, {"location": "Caba\u00f1as Parque Del Lago", "id": "1010479870", "lat": "-39.6438888", "lng": "-72.3424286", "Oct-17-2020": "17"}, {"location": "Camping De Chauquen Panguipulli", "id": "607575998", "lat": "-39.6806988764", "lng": "-72.3097945688", "Oct-17-2020": "16"}, {"location": "Lago Rinihue", "id": "939361198", "lat": "-39.64566409", "lng": "-72.3246566", "Oct-17-2020": "16"}, {"location": "Liqui\u00f1e", "id": "821497104910399", "lat": "-39.64226", "lng": "-72.33346", "Oct-17-2020": "15"}, {"location": "The City Discoteque", "id": "1018738553", "lat": "-39.64263208", "lng": "-72.32677664", "Oct-17-2020": "13"}, {"location": "Planeta Tierra", "id": "510287432375371", "lat": "-39.6397458795", "lng": "-72.3211221287", "Oct-17-2020": "16"}, {"location": "Campo lindo fruter\u00eda verduleria", "id": "1024665274281357", "lat": "-39.6441268", "lng": "-72.3340031", "Oct-17-2020": "7"}, {"location": "Playa Panguipulli", "id": "535010056940492", "lat": "-39.6435707159", "lng": "-72.3190979745", "Oct-17-2020": "14"}, {"location": "Hospital Padre Bernabe De Lucerna Panguipulli", "id": "1016388719", "lat": "-39.6333", "lng": "-72.3333", "Oct-17-2020": "15"}, {"location": "El Pollo Rey", "id": "229929883772312", "lat": "-39.6434784291", "lng": "-72.3332529806", "Oct-17-2020": "14"}, {"location": "Neltume Huilo Huilo Tour", "id": "294091224576124", "lat": "-39.6570342434", "lng": "-72.3179125786", "Oct-17-2020": "21"}, {"location": "Hogar De Los Mu\u00f1oz David", "id": "1023748704323122", "lat": "-39.6433739", "lng": "-72.322434", "Oct-17-2020": "15"}, {"location": "River and Lake", "id": "586893361383741", "lat": "-39.6419993", "lng": "-72.3325841", "Oct-17-2020": "16"}, {"location": "Restauran Chapulin Panguipulli", "id": "897235057", "lat": "-39.6427704077", "lng": "-72.3308495983", "Oct-17-2020": "15"}, {"location": "Eugenia,house", "id": "246798548", "lat": "-39.6402241", "lng": "-72.3233656", "Oct-17-2020": "14"}, {"location": "Huellas Veterinaria", "id": "1668332173385780", "lat": "-39.6422353", "lng": "-72.3276433", "Oct-17-2020": "18"}, {"location": "Centro Turistico Los Robles", "id": "552361740", "lat": "-39.6302064966", "lng": "-72.3224563129", "Oct-17-2020": "13"}, {"location": "Biblioteca Panguipulli", "id": "1018370074", "lat": "-39.6426756028", "lng": "-72.325878553", "Oct-17-2020": "12"}, {"location": "Centro Educativo Fernando Santiv\u00e1n", "id": "361400889", "lat": "-39.6392897608", "lng": "-72.3268444601", "Oct-17-2020": "12"}, {"location": "Calafquen Peninsula", "id": "794590737407282", "lat": "null", "lng": "null", "Oct-17-2020": "14"}, {"location": "La Tumba del Buey, Mocho Choshuenco", "id": "1874614402753802", "lat": "-39.643669", "lng": "-72.33459", "Oct-17-2020": "11"}, {"location": "Ciudad Traici\u00f3n", "id": "1231846486862838", "lat": "-39.6419631884", "lng": "-72.331872571", "Oct-17-2020": "12"}, {"location": "Central De Alarmas Del Cuerpo De Bomberos Panguipulli", "id": "1020792063", "lat": "-39.6418847926", "lng": "-72.3310482293", "Oct-17-2020": "11"}, {"location": "Parque Vicente Perez Rosales, Panguipulli", "id": "645279106", "lat": "-39.6398990254", "lng": "-72.3312911019", "Oct-17-2020": "13"}, {"location": "Terminal Tur-Bus Panguipulli", "id": "45261610", "lat": "-39.6435536197", "lng": "-72.3330974775", "Oct-17-2020": "14"}, {"location": "MUNDO CLEAN Panguipulli", "id": "566750333512532", "lat": "-39.6429671042", "lng": "-72.3343831583", "Oct-17-2020": "14"}, {"location": "Mansi\u00f3n De Djpololo", "id": "1009211413", "lat": "-39.645113435", "lng": "-72.332892925", "Oct-17-2020": "13"}, {"location": "Muebleria Kolping Panguipulli", "id": "127168144680394", "lat": "-39.6396898", "lng": "-72.336366", "Oct-17-2020": "9"}, {"location": "UNIMARC", "id": "370806276713908", "lat": "-39.6429222571", "lng": "-72.333459656", "Oct-17-2020": "11"}, {"location": "Lago Chauquen", "id": "1025894170", "lat": "-39.6990585", "lng": "-72.3795787", "Oct-17-2020": "13"}, {"location": "Centro m\u00e9dico Matulic & Capraro", "id": "983004905215080", "lat": "-39.6422474437", "lng": "-72.3280835152", "Oct-17-2020": "12"}, {"location": "Cubil Fire-", "id": "882807958574599", "lat": "-39.6438824", "lng": "-72.331144175", "Oct-17-2020": "20"}, {"location": "Fundo La Palma, Panguipulli", "id": "138756526271146", "lat": "-39.7191975212", "lng": "-72.2920472996", "Oct-17-2020": "19"}, {"location": "Supermercado Unimarc Panguipulli", "id": "897207583", "lat": "-39.6429819405", "lng": "-72.3334733464", "Oct-17-2020": "10"}, {"location": "Aldea Expediciones", "id": "269051349972362", "lat": "-39.643660174", "lng": "-72.3265492916", "Oct-17-2020": "12"}, {"location": "Ruka Ray\u00fcn Caba\u00f1as", "id": "1024017889", "lat": "-39.6333", "lng": "-72.3333", "Oct-17-2020": "11"}, {"location": "Caba\u00f1as Parque del lago", "id": "567113000", "lat": "null", "lng": "null", "Oct-17-2020": "12"}, {"location": "Caba\u00f1as Portal Roble Huacho, Panguipulli, Chile", "id": "1018141090", "lat": "-39.6470364546", "lng": "-72.3322602812", "Oct-17-2020": "15"}, {"location": "Region de Los Rios Valdivia", "id": "873838082", "lat": "-39.64422915", "lng": "-72.33699286", "Oct-17-2020": "10"}, {"location": "Urgencias Hospital Panguipulli", "id": "615934244", "lat": "-39.6408272533", "lng": "-72.3425068907", "Oct-17-2020": "12"}, {"location": "Radio Picarona Panguipulli", "id": "103670052998724", "lat": "-39.6428033", "lng": "-72.3262271", "Oct-17-2020": "12"}, {"location": "Vivero Los Boldos", "id": "625104478", "lat": "-39.6598161", "lng": "-72.3158998", "Oct-17-2020": "12"}, {"location": "Playa Coihueco Panguipulli", "id": "1856425304374144", "lat": "-39.6409894", "lng": "-72.3312171", "Oct-17-2020": "13"}, {"location": "The Circle", "id": "1006399756091403", "lat": "-39.63595387", "lng": "-72.31882652", "Oct-17-2020": "15"}, {"location": "La Roca Del Indio, Panguipulli", "id": "1026678416", "lat": "-39.645099", "lng": "-72.3360175", "Oct-17-2020": "9"}, {"location": "Tostadur\u00eda Newenk\u00eblen", "id": "1236855636421513", "lat": "-39.64201327", "lng": "-72.334438245", "Oct-17-2020": "17"}, {"location": "Quincho las Gaviotas.", "id": "1048078781943348", "lat": "-39.6422825", "lng": "-72.3447837", "Oct-17-2020": "14"}, {"location": "Reposter\u00eda Fk&N Hermanos", "id": "113011800419972", "lat": "-39.6441641235", "lng": "-72.3499703407", "Oct-17-2020": "14"}, {"location": "Poblaci\u00f3n Ernesto Pinto", "id": "162356347287602", "lat": "-39.6450366372", "lng": "-72.3403004339", "Oct-17-2020": "5"}, {"location": "Instituto Ipg", "id": "1019738508", "lat": "-39.6380626327", "lng": "-72.3240141072", "Oct-17-2020": "11"}, {"location": "Tours Sur de Chile", "id": "173542376597552", "lat": "-39.6355676", "lng": "-72.3308929", "Oct-17-2020": "16"}, {"location": "Camino Los Lagos", "id": "512606709", "lat": "-39.6443354", "lng": "-72.343581", "Oct-17-2020": "8"}, {"location": "Ruta Hua-Hum", "id": "1031513433", "lat": "-39.6598161", "lng": "-72.3158998", "Oct-17-2020": "9"}, {"location": "Circuitosietelagos", "id": "441858323027003", "lat": "null", "lng": "null", "Oct-17-2020": "15"}, {"location": "Escuela Claudio Arrau Leon", "id": "1029626964", "lat": "-39.63521341", "lng": "-72.3441897701", "Oct-17-2020": "11"}, {"location": "Un mundo lleno de oportunidades y sin fracasos", "id": "361449707263754", "lat": null, "lng": null, "Oct-17-2020": null}, {"location": "Onde Thomas", "id": "406286506117075", "lat": "-39.642438384", "lng": "-72.327774167", "Oct-17-2020": "18"}, {"location": "Panguipull Chauquen", "id": "2001589233386150", "lat": "-39.6429166", "lng": "-72.3334052", "Oct-17-2020": "14"}, {"location": "Camping Puchaley Lafquen", "id": "656647625", "lat": "-39.6435261", "lng": "-72.3189812", "Oct-17-2020": "11"}, {"location": "camping Siete Lagos", "id": "1026142960853731", "lat": "-39.6438789", "lng": "-72.3191675", "Oct-17-2020": "10"}, {"location": "Consultoria de Imagen & Makeup", "id": "440600546294504", "lat": "null", "lng": "null", "Oct-17-2020": "15"}, {"location": "Sodoma y Gomorra", "id": "537083386478706", "lat": "-39.6420024417", "lng": "-72.3319698194", "Oct-17-2020": "10"}, {"location": "Ensenada Panguipulli", "id": "1015584449", "lat": "-39.7246385", "lng": "-72.2789342", "Oct-17-2020": "12"}, {"location": "Fog\u00f3n Del Lago Panguipulli", "id": "1540368162724597", "lat": "-39.643818", "lng": "-72.3307228", "Oct-17-2020": "13"}, {"location": "Restaurante Chauquen", "id": "1792686221053346", "lat": "-39.64194295", "lng": "-72.3227944", "Oct-17-2020": "15"}, {"location": "Centro Educativo Fernando Santivan", "id": "287306865110481", "lat": "-39.6393273903", "lng": "-72.32719926", "Oct-17-2020": "11"}, {"location": "Planta De Revisi\u00f3n T\u00e9cnica, Panguipulli", "id": "104065639935215", "lat": "-39.6560316667", "lng": "-72.356935", "Oct-17-2020": "6"}, {"location": "Iglesia Cristo Tu Unica Esperanza", "id": "421385689", "lat": "-39.6432959211", "lng": "-72.3305824345", "Oct-17-2020": "10"}, {"location": "Sala Cuna Y Jardin Infantil K\u00fcpulwe", "id": "1014810815", "lat": "-39.6494448667", "lng": "-72.3418975333", "Oct-17-2020": "9"}, {"location": "Ancacomoe", "id": "1030012253", "lat": "-39.6358712", "lng": "-72.3257017", "Oct-17-2020": "8"}, {"location": "Club Escuestre Kawelmapu", "id": "429764313842627", "lat": "-39.645648305", "lng": "-72.3645382602", "Oct-17-2020": "10"}, {"location": "Caba\u00f1as Pemehue", "id": "1027523730", "lat": "-39.6749689475", "lng": "-72.3160330874", "Oct-17-2020": "10"}, {"location": "The City Louge", "id": "443794760", "lat": "-39.6361308695", "lng": "-72.3191088467", "Oct-17-2020": "10"}, {"location": "Playa Monge", "id": "1016668135", "lat": "-39.6445057", "lng": "-72.3314909", "Oct-17-2020": "10"}, {"location": "Siete Lagos Fly Tying", "id": "1786079308307175", "lat": "-39.6419993", "lng": "-72.3325841", "Oct-17-2020": "11"}, {"location": "Florencia Pizzeria", "id": "110883257259291", "lat": "-39.6421099", "lng": "-72.3282453", "Oct-17-2020": "0"}, {"location": "Laderas De Puyumen", "id": "112557992994483", "lat": "-39.6812977861", "lng": "-72.2771092082", "Oct-17-2020": "17"}, {"location": "Pukem-Walung turismo y cosmovisi\u00f3n", "id": "875973345943830", "lat": "-39.63554", "lng": "-72.33041", "Oct-17-2020": "11"}, {"location": "Tur Bus Panguipulli", "id": "1031949545", "lat": "-39.6437024503", "lng": "-72.3331804998", "Oct-17-2020": "7"}, {"location": "Caba\u00f1as Paihu\u00e9n Panguipulli", "id": "560868975", "lat": "-39.6800920328", "lng": "-72.3124301434", "Oct-17-2020": "16"}, {"location": "Pizzeria le streghe", "id": "895702333902216", "lat": "-39.6421099", "lng": "-72.3282453", "Oct-17-2020": "12"}, {"location": "Pallahuinte", "id": "1002863538", "lat": "-39.6398554", "lng": "-72.3210563", "Oct-17-2020": "10"}, {"location": "Radio Omega Panguipulli 96.3", "id": "1403570056526719", "lat": "-39.6473894", "lng": "-72.3405511", "Oct-17-2020": "10"}, {"location": "Feria Costumbrista Panguipull\u00ef", "id": "571076578", "lat": "-39.6418802", "lng": "-72.32903418", "Oct-17-2020": "9"}, {"location": "Municipalidad de Panguipulli", "id": "29034059", "lat": "-39.6416794488", "lng": "-72.3325071259", "Oct-17-2020": "9"}, {"location": "Caba\u00f1as Lago Calafqu\u00e9n", "id": "1150693511685032", "lat": "-39.64226", "lng": "-72.33346", "Oct-17-2020": "9"}, {"location": "Mirador ancapulli", "id": "175497143054659", "lat": null, "lng": null, "Oct-17-2020": null}, {"location": "Restaurante Escuela PHP", "id": "286040875138331", "lat": "-39.64262", "lng": "-72.3324193", "Oct-17-2020": "9"}, {"location": "Club Deportivo Raki", "id": "200057847016861", "lat": "-39.6422825", "lng": "-72.3447837", "Oct-17-2020": "9"}, {"location": "Caf\u00e9 Donde La Negra.", "id": "270890871", "lat": "-39.6419079014", "lng": "-72.33187152", "Oct-17-2020": "9"}, {"location": "Valdivia", "id": "275368342", "lat": "-39.6362554731", "lng": "-72.330656757", "Oct-17-2020": "9"}, {"location": "Casa Arbol", "id": "1029508517", "lat": "-39.6422615", "lng": "-72.3334579", "Oct-17-2020": "10"}, {"location": "Liqui\u00f1e", "id": "773949765", "lat": "-39.64400689", "lng": "-72.33424619", "Oct-17-2020": "10"}, {"location": "Feria Costumbrista Panguipulli", "id": "328551607657345", "lat": "-39.6435607684", "lng": "-72.3265376959", "Oct-17-2020": "12"}, {"location": "Caba\u00f1as El Galo", "id": "1026779799", "lat": "-39.646349833", "lng": "-72.344247348", "Oct-17-2020": "7"}, {"location": "Pizzeria Le Streghe", "id": "617378726", "lat": "-39.6421833701", "lng": "-72.3284988658", "Oct-17-2020": "10"}, {"location": "Casa Moraga-Ibar", "id": "377628452", "lat": "-39.6377147833", "lng": "-72.3387227167", "Oct-17-2020": "9"}, {"location": "Baby Tom", "id": "625852031115103", "lat": "-39.6445441", "lng": "-72.3437827", "Oct-17-2020": "12"}, {"location": "ruta203ch", "id": "111619833636285", "lat": "-39.6430792", "lng": "-72.3344086", "Oct-17-2020": "3"}, {"location": "Caserito Panguipulli", "id": "579584962491346", "lat": "-39.6431615", "lng": "-72.33197", "Oct-17-2020": "26"}, {"location": "Los Puquios Panguipulli", "id": "565130246", "lat": "-39.7173494054", "lng": "-72.3241814879", "Oct-17-2020": "9"}, {"location": "La Fama, Cafeter\u00eda y Pasteler\u00eda", "id": "706064906210085", "lat": "-39.6429416503", "lng": "-72.327485455", "Oct-17-2020": "9"}, {"location": "Terminal Panguipulli Region de Los Rios.", "id": "1020663800", "lat": "-39.644329583", "lng": "-72.33626333", "Oct-17-2020": "7"}, {"location": "Fogon del Lago", "id": "230390687411639", "lat": "-39.6438612", "lng": "-72.3304912", "Oct-17-2020": "13"}, {"location": "Casa De Campo oma", "id": "206171693664102", "lat": "-39.6385054", "lng": "-72.3528911", "Oct-17-2020": "8"}, {"location": "Playa Panguipulli", "id": "600526839", "lat": "-39.691833996", "lng": "-72.3848115987", "Oct-17-2020": "7"}, {"location": "Panaderia Migas", "id": "1019437035", "lat": "-39.6418495", "lng": "-72.3308792", "Oct-17-2020": "4"}, {"location": "El Gloton - Panguipulli", "id": "1031351452", "lat": "-39.6426725517", "lng": "-72.3303008945", "Oct-17-2020": "8"}, {"location": "Emporio Saz\u00f3n", "id": "325601817937662", "lat": "-39.6420947", "lng": "-72.3296195", "Oct-17-2020": "15"}, {"location": "Puyumen", "id": "310519912390422", "lat": "-39.6778130238", "lng": "-72.2999310493", "Oct-17-2020": "8"}, {"location": "Barenco", "id": "52005794", "lat": "-39.6428811633", "lng": "-72.3264502804", "Oct-17-2020": "8"}, {"location": "Playa Monje", "id": "252187894854005", "lat": "-39.716126", "lng": "-72.344681", "Oct-17-2020": "7"}, {"location": "MR HULK", "id": "819341831605171", "lat": "null", "lng": "null", "Oct-17-2020": "7"}, {"location": "Disco The city ....panguipulli...", "id": "1032795214", "lat": "-39.64236429", "lng": "-72.33289934", "Oct-17-2020": "11"}, {"location": "Comuna De Panguipulli, Regi\u00f3n De Los R\u00edos", "id": "104643171271973", "lat": "-39.64226", "lng": "-72.33346", "Oct-17-2020": "4"}, {"location": "Poblacion Padre Hurtado", "id": "269940013721998", "lat": "-39.641655", "lng": "-72.333206", "Oct-17-2020": "10"}, {"location": "Thecircle Panguipulli", "id": "664507720338489", "lat": "-39.6395755", "lng": "-72.3311334", "Oct-17-2020": "8"}, {"location": "Siete Lagos", "id": "380521108670532", "lat": "-39.6408017", "lng": "-72.3231279", "Oct-17-2020": "7"}, {"location": "Parroquia De Panguipulli", "id": "941826147", "lat": "-39.64612315", "lng": "-72.3428594", "Oct-17-2020": "7"}, {"location": "Discotheque Thecity Multiespacio Panguipulli", "id": "541660497", "lat": "-39.6361006792", "lng": "-72.3188138194", "Oct-17-2020": "9"}, {"location": "Caba\u00f1as Sauce de Pucura", "id": "152642351774765", "lat": "-39.5201977803", "lng": "-72.06782341", "Oct-17-2020": "10"}, {"location": "Sala Cuna Kupulwe", "id": "1614586248612110", "lat": "-39.6359683", "lng": "-72.3431187", "Oct-17-2020": "8"}, {"location": "Small kids", "id": "878482088949276", "lat": "-39.64285", "lng": "-72.34306", "Oct-17-2020": "11"}, {"location": "Huilo Huilo", "id": "513252445394364", "lat": "-39.63635254", "lng": "-72.31894219", "Oct-17-2020": "8"}, {"location": "Biblioteca Municipal de Panguipulli. CAJ.", "id": "1007545460", "lat": "-39.6427813073", "lng": "-72.325542593", "Oct-17-2020": "7"}, {"location": "Restaurant Gardylafquen - Panguipulli X Regi\u00f3n", "id": "423267354", "lat": "-39.642629379", "lng": "-72.3319833086", "Oct-17-2020": "8"}, {"location": "Restaurant Paladares", "id": "1651136221820120", "lat": "-39.6446927", "lng": "-72.3351844", "Oct-17-2020": "5"}, {"location": "Banqueteria Valdivia", "id": "2316501288605228", "lat": "null", "lng": "null", "Oct-17-2020": "10"}, {"location": "Jard\u00edn del Arte", "id": "2196040783965084", "lat": "-39.6443325", "lng": "-72.3337762", "Oct-17-2020": "20"}, {"location": "Playa Roble Huacho", "id": "131306110869223", "lat": "-39.64661", "lng": "-72.33255", "Oct-17-2020": "6"}, {"location": "El Roble Huacho", "id": "600360296", "lat": "-39.6392673698", "lng": "-72.3253451221", "Oct-17-2020": "6"}, {"location": "Instituto IPG Panguipulli", "id": "559604464514931", "lat": "-39.6424948", "lng": "-72.327732", "Oct-17-2020": "9"}, {"location": "Mano De Monja Cafeteria", "id": "1028073073", "lat": "-39.6410417", "lng": "-72.335555295", "Oct-17-2020": "7"}, {"location": "Escuela Manuel Anabal\u00f3n S\u00e1ez", "id": "687739427", "lat": "-39.6452721", "lng": "-72.3397557", "Oct-17-2020": "7"}, {"location": "Cheos Night Club", "id": "1018827317", "lat": "-39.64294986", "lng": "-72.33168508", "Oct-17-2020": "7"}, {"location": "Gimnasio Cobras Chile Panguipulli", "id": "274748442638972", "lat": "-39.6405064866", "lng": "-72.3350857434", "Oct-17-2020": "8"}, {"location": "Casa Campo Familia Alvarez Mella", "id": "410389485659543", "lat": "-39.6568540667", "lng": "-72.3606888833", "Oct-17-2020": "8"}, {"location": "Dreams Valdivia", "id": "405540629504520", "lat": "-39.6441962198", "lng": "-72.3435196281", "Oct-17-2020": "6"}, {"location": "Osorno", "id": "922545776", "lat": "-39.6416355", "lng": "-72.3295098", "Oct-17-2020": "6"}, {"location": "Le Streghe", "id": "35765646", "lat": "-39.642205753", "lng": "-72.32812274", "Oct-17-2020": "8"}, {"location": "Serviteca Bridgestone Panguipulli", "id": "561427164036757", "lat": "-39.640190985", "lng": "-72.33876306", "Oct-17-2020": "6"}, {"location": "Sendero Entre Robles Viejos", "id": "848495178644464", "lat": "-39.6757486393", "lng": "-72.3751831055", "Oct-17-2020": "11"}, {"location": "Cementerio Panguipulli", "id": "819474791540635", "lat": "-39.6360768001", "lng": "-72.3424178", "Oct-17-2020": "9"}, {"location": "Donde Los Caupos", "id": "144836162384175", "lat": "-39.63515795", "lng": "-72.34430525", "Oct-17-2020": "7"}, {"location": "Sandwicheria 369", "id": "1762243897145300", "lat": "null", "lng": "null", "Oct-17-2020": "7"}, {"location": "Casa De Los Tititos", "id": "1035570505", "lat": "-39.63889429", "lng": "-72.33687027", "Oct-17-2020": "6"}, {"location": "Encuentro Under Panguipulli", "id": "1821613828051585", "lat": "-39.6439823717", "lng": "-72.331237793", "Oct-17-2020": "9"}, {"location": "BordeLago", "id": "1529874147293189", "lat": "-39.6437252167", "lng": "-72.3271673967", "Oct-17-2020": "7"}, {"location": "Cuartel De Bomberos Panguipulli", "id": "946364436", "lat": "-39.6418699235", "lng": "-72.3309846601", "Oct-17-2020": "6"}, {"location": "Caba\u00f1as Villa Las Encinas", "id": "919316514", "lat": "-39.6392585617", "lng": "-72.3253127017", "Oct-17-2020": "10"}, {"location": "Iglesia ctue Panguipulli", "id": "1966717793424874", "lat": "-39.6437147", "lng": "-72.3290041", "Oct-17-2020": "6"}, {"location": "Vogue Panguipulli", "id": "1013855654", "lat": "-39.7104739472", "lng": "-72.3520892744", "Oct-17-2020": "7"}, {"location": "Canchas De Tenis Panguipulli", "id": "644310026", "lat": "-39.64326801", "lng": "-72.3255139589", "Oct-17-2020": "7"}, {"location": "Camping RIO CHAN CHAN", "id": "1895045004055968", "lat": "-39.64016", "lng": "-72.32155", "Oct-17-2020": "12"}, {"location": "Fonda Onde La Moroca", "id": "1015132653", "lat": "-39.6418888933", "lng": "-72.3313800586", "Oct-17-2020": "7"}, {"location": "Tortas Eliana", "id": "512208340", "lat": "-39.6438015", "lng": "-72.3337088", "Oct-17-2020": "3"}, {"location": "Feria huaun huaun Panguipulli", "id": "541708705989683", "lat": "-39.6425519", "lng": "-72.3270757", "Oct-17-2020": "12"}, {"location": "Eco Canopy Tralcapulli", "id": "100320264810146", "lat": "-39.64226", "lng": "-72.33346", "Oct-17-2020": "13"}, {"location": "Playa Roble Huacho", "id": "551514975262219", "lat": "-39.653043", "lng": "-72.321787", "Oct-17-2020": "7"}, {"location": "Lafken Ruka Panguipulli", "id": "243822336202440", "lat": "null", "lng": "null", "Oct-17-2020": "4"}, {"location": "Centro Medico Capraro Y Matulic", "id": "1035593679", "lat": "-39.642157514", "lng": "-72.328106773", "Oct-17-2020": "3"}, {"location": "Villa Los Alcaldes", "id": "773122442", "lat": "-39.6393181338", "lng": "-72.3310452671", "Oct-17-2020": "6"}, {"location": "Donde La Negra", "id": "59728549", "lat": "-39.6419183316", "lng": "-72.3319907107", "Oct-17-2020": "6"}, {"location": "Liceo Agricola y Forestal People Help People de Pullingue", "id": "435944113116549", "lat": "-39.6386849", "lng": "-72.3237437", "Oct-17-2020": "5"}, {"location": "Terminal de Buses", "id": "269365987042333", "lat": "-39.6442168592", "lng": "-72.3363468988", "Oct-17-2020": "5"}, {"location": "Cerveza artesanal Liwen", "id": "313894182463270", "lat": "-39.6435692975", "lng": "-72.3256587982", "Oct-17-2020": "6"}, {"location": "Gominola", "id": "399551077175570", "lat": "-39.6432126", "lng": "-72.3294589", "Oct-17-2020": "8"}, {"location": "Centro Educativo Fernando Santiv\u00e1n", "id": "353124815032094", "lat": "-39.64335219", "lng": "-72.33378936", "Oct-17-2020": "6"}, {"location": "Cachureos", "id": "1650058301984620", "lat": "-39.6418385", "lng": "-72.3286908", "Oct-17-2020": "7"}, {"location": "Hostal Nahuel", "id": "406273093045930", "lat": "-39.6462641", "lng": "-72.3430843", "Oct-17-2020": "7"}, {"location": "5ta. Comisaria Panguipulli", "id": "369870546412247", "lat": "-39.6414350113", "lng": "-72.3371933867", "Oct-17-2020": "6"}, {"location": "Panguipulli,camino los Tallos", "id": "917495060", "lat": "-39.6797478", "lng": "-72.3737623", "Oct-17-2020": "6"}, {"location": "Puerto Montt", "id": "353467737", "lat": "-39.6440619", "lng": "-72.3323293", "Oct-17-2020": "6"}, {"location": "Consultorio Panguipulli", "id": "638083796233995", "lat": "-39.6433166667", "lng": "-72.3371016667", "Oct-17-2020": "3"}, {"location": "caba\u00f1as la ilusi\u00f3n, Panguipulli Chile", "id": "354829504582020", "lat": "-39.640467115", "lng": "-72.331039785", "Oct-17-2020": "6"}, {"location": "Sushi Panguipulli", "id": "1027490392", "lat": "-39.64226", "lng": "-72.33346", "Oct-17-2020": "4"}, {"location": "Verde Expediciones", "id": "550287241806140", "lat": "-39.6420491634", "lng": "-72.3300147057", "Oct-17-2020": "6"}, {"location": "Mirador isla Gabriela", "id": "835603529912722", "lat": "-39.643669", "lng": "-72.33459", "Oct-17-2020": "6"}, {"location": "Casa De Papi Valenzuela", "id": "528790177257120", "lat": "-39.6395298", "lng": "-72.3232634", "Oct-17-2020": "6"}, {"location": "AltoSur Outlet", "id": "107844640747579", "lat": "-39.6420585413", "lng": "-72.3293988232", "Oct-17-2020": "5"}, {"location": "Eco wash panguipulli", "id": "112723466773147", "lat": "-39.63554", "lng": "-72.33041", "Oct-17-2020": "12"}, {"location": "Caba\u00f1a Alto Pucura", "id": "1160383547430287", "lat": "-39.63554", "lng": "-72.33041", "Oct-17-2020": "5"}, {"location": "Hostal genesis", "id": "272365675", "lat": "-39.6429939518", "lng": "-72.3340502757", "Oct-17-2020": "6"}, {"location": "Caba\u00f1as Pemehue, Chauquen Panguipulli.", "id": "137841140262830", "lat": "-39.6753411", "lng": "-72.3155845", "Oct-17-2020": "11"}, {"location": "Malihue Los Lagos", "id": "941621088", "lat": "-39.6431995", "lng": "-72.3277792", "Oct-17-2020": "6"}, {"location": "En Mi Casa Panguipuli", "id": "893472940670379", "lat": "-39.6420142", "lng": "-72.3369762", "Oct-17-2020": "6"}, {"location": "Cordillera Tours Panguipulli", "id": "1035478067", "lat": "-39.6627", "lng": "-72.32789", "Oct-17-2020": "6"}, {"location": "Sudam\u00e9rica Diversa", "id": "116289769831706", "lat": "null", "lng": "null", "Oct-17-2020": "5"}, {"location": "Val & Val Producciones", "id": "1823889257922445", "lat": "-39.6439437", "lng": "-72.3259928", "Oct-17-2020": "6"}, {"location": "Mi Casa", "id": "378861717", "lat": "-39.64190878", "lng": "-72.32673264", "Oct-17-2020": "6"}, {"location": "Transfer Panguipulli", "id": "1779520808992503", "lat": "-39.6627", "lng": "-72.32789", "Oct-17-2020": "6"}, {"location": "Plaza Del Correo", "id": "131616083712153", "lat": "-39.642803", "lng": "-72.323913", "Oct-17-2020": "5"}, {"location": "Mi Casa en Pangui", "id": "231651866928145", "lat": "-39.6458999241", "lng": "-72.2987032493", "Oct-17-2020": "7"}, {"location": "Lago Panguipulli", "id": "594586085", "lat": "-39.7245475563", "lng": "-72.2771445978", "Oct-17-2020": "5"}, {"location": "La Previa pub", "id": "1016354530", "lat": null, "lng": null, "Oct-17-2020": null}, {"location": "Parcela Trolco", "id": "1027235318", "lat": "-39.6514904", "lng": "-72.3235937", "Oct-17-2020": "5"}, {"location": "Lomas de Pelehue", "id": "323777611657489", "lat": "null", "lng": "null", "Oct-17-2020": "5"}, {"location": "Omdel", "id": "1028433098", "lat": "-39.6408812", "lng": "-72.3331708", "Oct-17-2020": "6"}, {"location": "Camping El Bosque Panguipulli", "id": "242025662638075", "lat": "-39.64182", "lng": "-72.3295", "Oct-17-2020": "5"}, {"location": "7 Lagos", "id": "270466779689840", "lat": "-39.634735", "lng": "-72.3348575", "Oct-17-2020": "8"}, {"location": "Revisi\u00f3n T\u00e9cnica Panguipulli", "id": "190288617768264", "lat": "-39.6560433784", "lng": "-72.3570384938", "Oct-17-2020": "0"}, {"location": "El Fundo Chico", "id": "1012626071", "lat": "-39.6530112066", "lng": "-72.3545556487", "Oct-17-2020": "4"}, {"location": "Petrobras", "id": "695512697", "lat": "-39.64306455", "lng": "-72.32773075", "Oct-17-2020": "4"}, {"location": "Maximus Gym", "id": "415561735545260", "lat": "-39.6421138", "lng": "-72.3295309", "Oct-17-2020": "4"}, {"location": "ETXEKO, a orillas del lago Panguipulli", "id": "1024013730", "lat": "-39.6418359", "lng": "-72.3325364", "Oct-17-2020": "5"}, {"location": "Plaza Arturo Prat Panguipulli", "id": "543198616073015", "lat": "-39.6420043", "lng": "-72.3333539", "Oct-17-2020": "11"}, {"location": "Krizzia Sweet boutique", "id": "492249030", "lat": "-39.6333", "lng": "-72.3333", "Oct-17-2020": "5"}, {"location": "Conservemos Lago Neltume", "id": "438927663281765", "lat": "null", "lng": "null", "Oct-17-2020": "10"}, {"location": "Mirador De Rucatrehue", "id": "665635299", "lat": "-39.6352934", "lng": "-72.325272", "Oct-17-2020": "5"}, {"location": "Jard\u00edn Infantil Fuente De Luz", "id": "416048165846825", "lat": "-39.6454619", "lng": "-72.3428254", "Oct-17-2020": "7"}, {"location": "Panguipulle", "id": "595482371", "lat": "-39.642821725", "lng": "-72.325859224", "Oct-17-2020": "5"}, {"location": "Jard\u00edn Infantil K\u00fcpulwe", "id": "1014836337", "lat": "-39.63978268", "lng": "-72.33099414", "Oct-17-2020": "5"}, {"location": "Unimarc Panguipulli", "id": "56041574", "lat": "-39.6428671403", "lng": "-72.3336133602", "Oct-17-2020": "5"}, {"location": "Fundo el Sombrero, Chile", "id": "610711567", "lat": "-39.7477771985", "lng": "-72.3289394402", "Oct-17-2020": "5"}, {"location": "Veterinaria Bicharrakos", "id": "537904059694257", "lat": "-39.6427269", "lng": "-72.3360825", "Oct-17-2020": "5"}, {"location": "Union Riohueico", "id": "697481290636948", "lat": "null", "lng": "null", "Oct-17-2020": "5"}, {"location": "Mirador Toledo, Panguipulli, Regi\u00f3n De Los R\u00edos", "id": "490617734680053", "lat": "-39.64226", "lng": "-72.33346", "Oct-17-2020": "4"}, {"location": "\u00a4 Wutra Pulli Mirador \u00a4 Senderismo Biocultural y Comida Tradicional \u00a4", "id": "1018073524942884", "lat": "-39.6436199", "lng": "-72.3335829", "Oct-17-2020": "4"}, {"location": "Palmyra Home Chile", "id": "109478784075013", "lat": "-39.6212580076", "lng": "-72.3371875615", "Oct-17-2020": "6"}, {"location": "Parque Sabala Valdivia", "id": "617469183", "lat": "-39.64329896", "lng": "-72.32944936", "Oct-17-2020": "3"}, {"location": "Caba\u00f1as La Ilusi\u00f3n", "id": "396153040813411", "lat": "-39.640897411", "lng": "-72.331066533", "Oct-17-2020": "5"}, {"location": "Centro Turistico Los Robles", "id": "1035495839868749", "lat": "-39.6348399", "lng": "-72.32283", "Oct-17-2020": "7"}, {"location": "Restaurant El Pollo Cototo", "id": "746106069073236", "lat": "-39.6422001667", "lng": "-72.3343623667", "Oct-17-2020": "2"}, {"location": "Municipal de Panguipulli Airport", "id": "734186426702554", "lat": "-39.653301239", "lng": "-72.3602981567", "Oct-17-2020": "7"}, {"location": "Kawellmapu", "id": "1034022664", "lat": "-39.6460271601", "lng": "-72.3638282099", "Oct-17-2020": "6"}, {"location": "Murta", "id": "980066648830706", "lat": "-39.642977", "lng": "-72.330295", "Oct-17-2020": "6"}, {"location": "Parrillada Restaurant Chapulin", "id": "379664849", "lat": "-39.6427847169", "lng": "-72.3309210815", "Oct-17-2020": "5"}, {"location": "Hostal Y Caba\u00f1as Mauna", "id": "1657170410993212", "lat": "-39.6637768", "lng": "-72.3629623", "Oct-17-2020": "10"}, {"location": "Fiesta De La Cerveza, Panguipulli", "id": "1358216830916954", "lat": "-39.6411668667", "lng": "-72.3323286432", "Oct-17-2020": "6"}, {"location": "Parque Vicente P\u00e9rez Rosales Pan", "id": "141163513221527", "lat": "-39.6373724", "lng": "-72.3255638", "Oct-17-2020": "6"}, {"location": "Familia de Acogida FAE PRO Panguipulli", "id": "979677125470026", "lat": "-39.6407520661", "lng": "-72.3390644789", "Oct-17-2020": "5"}, {"location": "Altos De Palguin Panguipulli", "id": "1475796886025206", "lat": "-39.6432695", "lng": "-72.3496698", "Oct-17-2020": "4"}, {"location": "Turismo del Sur de Chile", "id": "654952721589159", "lat": "-39.6449736", "lng": "-72.3343714", "Oct-17-2020": "8"}, {"location": "Cl\u00ednica Veterinaria Panguipulli", "id": "105911946745645", "lat": "-39.6426529", "lng": "-72.3322534", "Oct-17-2020": "5"}, {"location": "Caba\u00f1as Los Robles, Panguipulli", "id": "406472403", "lat": "-39.630268379", "lng": "-72.32246466", "Oct-17-2020": "5"}, {"location": "El Criollo, Panguipulli, Chile", "id": "1405046303132966", "lat": "-39.6427351", "lng": "-72.3318129", "Oct-17-2020": "6"}, {"location": "Alma Mater Escuela de Lenguaje", "id": "1398959460188636", "lat": "-39.6407673", "lng": "-72.3338136", "Oct-17-2020": "8"}, {"location": "Serviu Los Rios", "id": "965428453472803", "lat": "-39.6354599", "lng": "-72.3306427", "Oct-17-2020": "4"}, {"location": "Centro De Eventos A&C poste 43 Las Gaviotas", "id": "2013740695545572", "lat": "-39.6422825", "lng": "-72.3447837", "Oct-17-2020": "9"}, {"location": "Arrayan", "id": "113583017083281", "lat": "null", "lng": "null", "Oct-17-2020": "4"}, {"location": "Liceo Bicentenario Altamira", "id": "1018407783", "lat": "-39.6350197145", "lng": "-72.3441924362", "Oct-17-2020": "5"}, {"location": "Centro cultural Panguipulli", "id": "115338981930463", "lat": "-39.641194", "lng": "-72.3323405", "Oct-17-2020": "4"}, {"location": "EscalaPangui", "id": "107203270753958", "lat": "-39.68925", "lng": "-72.38264", "Oct-17-2020": "1"}, {"location": "Casita", "id": "202614453157175", "lat": "-39.6420847799", "lng": "-72.3371226426", "Oct-17-2020": "5"}, {"location": "Casa De Los Salinas", "id": "1010714088", "lat": "-39.6434076", "lng": "-72.3474012", "Oct-17-2020": "4"}, {"location": "Pangupulli", "id": "879795467", "lat": "-39.6383465", "lng": "-72.326326", "Oct-17-2020": "4"}, {"location": "Villa Los Presidente", "id": "276137169398759", "lat": "-39.6352977", "lng": "-72.3321982333", "Oct-17-2020": "1"}, {"location": "Isla Curihuen", "id": "594206269", "lat": "-39.6568338247", "lng": "-72.3020881322", "Oct-17-2020": "4"}, {"location": "Balneario Malalhue.", "id": "1033264161", "lat": "-39.6427363", "lng": "-72.3307936", "Oct-17-2020": "4"}, {"location": "Casona Cultural de Panguipulli", "id": "1031546761", "lat": "-39.6426483333", "lng": "-72.3223233333", "Oct-17-2020": "4"}, {"location": "Liceo Padre Sigisfredo", "id": "368491967028604", "lat": "-39.6420055982", "lng": "-72.3334168081", "Oct-17-2020": "5"}, {"location": "Casa Familia Lafuente", "id": "1015394442", "lat": "-39.640556", "lng": "-72.3229786", "Oct-17-2020": "4"}, {"location": "Caba\u00f1as Orillas del Lago", "id": "1022269811", "lat": "-39.6435755143", "lng": "-72.3266142571", "Oct-17-2020": "4"}, {"location": "Panguipulli", "id": "791307055", "lat": "-39.6333333333", "lng": "-72.3333333333", "Oct-17-2020": "4"}, {"location": "Panguipulli", "id": "1028888789", "lat": "-39.7020861", "lng": "-72.389768", "Oct-17-2020": "4"}, {"location": "Reastaruant El Mirador, Panguipulli", "id": "1025070471", "lat": "-39.642906537", "lng": "-72.340372684", "Oct-17-2020": "4"}, {"location": "Leyendo en Red", "id": "615736168513510", "lat": "-39.6333", "lng": "-72.3333", "Oct-17-2020": "6"}, {"location": "Sala Cuna Y Jardin Quechumalal", "id": "479852428776913", "lat": "-39.64169298", "lng": "-72.34694027", "Oct-17-2020": "4"}, {"location": "En El Campo", "id": "913576218", "lat": "-39.70917", "lng": "-72.35819", "Oct-17-2020": "4"}, {"location": "Pitr\u00e9n", "id": "105005286325252", "lat": "-39.6469388", "lng": "-72.3414767", "Oct-17-2020": "5"}, {"location": "El Chapulin", "id": "654408063", "lat": "-39.642836", "lng": "-72.3308003", "Oct-17-2020": "5"}, {"location": "Terminal Panguipulli", "id": "839170147", "lat": "-39.6443503", "lng": "-72.3362913", "Oct-17-2020": "5"}, {"location": "Regenbogen Bungalows", "id": "155491674596231", "lat": "-39.6628113", "lng": "-72.3278885", "Oct-17-2020": "3"}, {"location": "Yo Separo", "id": "501850817220721", "lat": "null", "lng": "null", "Oct-17-2020": "5"}, {"location": "Estadio Panguipulli", "id": "1026322547", "lat": "-39.6427268359", "lng": "-72.3308338843", "Oct-17-2020": "3"}, {"location": "Futbolito Llancahue LC", "id": "449817405370221", "lat": "-39.6409831", "lng": "-72.3467525", "Oct-17-2020": "4"}, {"location": "XIV Regi\u00f3n De Los R\u00edos", "id": "1025447709", "lat": "-39.63812466", "lng": "-72.32993188", "Oct-17-2020": "7"}, {"location": "Playa Monje, Panguipulli, Chile", "id": "334127975", "lat": "-39.7158084284", "lng": "-72.3448336532", "Oct-17-2020": "3"}, {"location": "Centro Integral De Belleza Concepto", "id": "1028426875", "lat": "-39.64396167", "lng": "-72.3306018967", "Oct-17-2020": "2"}, {"location": "Restaurant Hostal Girasol.", "id": "805088778", "lat": "-39.6431377524", "lng": "-72.3314237903", "Oct-17-2020": "4"}, {"location": "El Trebol, Panguipulli", "id": "792247140806183", "lat": "-39.6421913839", "lng": "-72.3332352983", "Oct-17-2020": "1"}, {"location": "Puyehue Panguipulli", "id": "1026384869", "lat": "-39.647054", "lng": "-72.3416707", "Oct-17-2020": "6"}, {"location": "De Fiesta", "id": "754425838026602", "lat": "-39.6356311", "lng": "-72.3305468", "Oct-17-2020": "4"}, {"location": "Restaurant Florencia Panguipulli", "id": "749602595244568", "lat": "-39.6422081", "lng": "-72.32813", "Oct-17-2020": "4"}, {"location": "Notaria Panguipulli", "id": "561404387211407", "lat": "-39.6248234483", "lng": "-72.3123931034", "Oct-17-2020": "0"}, {"location": "Corporaci\u00f3n Municipal de Panguipulli", "id": "924475034315709", "lat": null, "lng": null, "Oct-17-2020": null}, {"location": "Villa Las Terrazas Panguipulli", "id": "378866089350196", "lat": "-39.6386457", "lng": "-72.331095", "Oct-17-2020": "2"}, {"location": "Kamysushi Panguipulli", "id": "1040312766110666", "lat": "-39.6431520901", "lng": "-72.3342365026", "Oct-17-2020": "6"}, {"location": "Oveja Negra - Producciones", "id": "603029952", "lat": null, "lng": null, "Oct-17-2020": null}, {"location": "Playa Coihueco Lago Panguipulli", "id": "159391258054274", "lat": "-39.643669", "lng": "-72.33459", "Oct-17-2020": "11"}, {"location": "Capitania De Puerto Panguipulli", "id": "1575254039414750", "lat": "-39.6426914", "lng": "-72.3338763", "Oct-17-2020": "4"}, {"location": "Panguipulli Las Bandurrias", "id": "1053810331378453", "lat": "-39.6439364", "lng": "-72.3467025", "Oct-17-2020": "4"}, {"location": "Plus Eventos", "id": "2203043189980324", "lat": "null", "lng": "null", "Oct-17-2020": "7"}, {"location": "G\u00f3mez y Wall abogados", "id": "110714587324407", "lat": "-39.64402", "lng": "-72.33073", "Oct-17-2020": "2"}, {"location": "Restaurant El Chapulin Panguipulli", "id": "608811306", "lat": "-39.64273929", "lng": "-72.331008727", "Oct-17-2020": "4"}, {"location": "Mirador Rucatrehua", "id": "210016049174547", "lat": "-39.6431119", "lng": "-72.34577181", "Oct-17-2020": "3"}, {"location": "Los \u00d1adis, Panguipulli", "id": "123187468331398", "lat": "-39.643669", "lng": "-72.33459", "Oct-17-2020": "5"}, {"location": "CABA\u00d1AS PANGUIPULLI", "id": "224123321049638", "lat": "-39.6442894", "lng": "-72.3315886", "Oct-17-2020": "3"}, {"location": "Petrobras", "id": "248440385816925", "lat": "-39.6431079618", "lng": "-72.3277973545", "Oct-17-2020": "3"}, {"location": "Urbanfullfitness", "id": "1012736263", "lat": "-39.6424841837", "lng": "-72.3275222705", "Oct-17-2020": "4"}, {"location": "Bar / La Previa - Panguipulli", "id": "613348744", "lat": "-39.6423011282", "lng": "-72.3285995979", "Oct-17-2020": "3"}, {"location": "Huellahue, Panguipulli", "id": "1015163256", "lat": "-39.6409196854", "lng": "-72.3319997787", "Oct-17-2020": "3"}, {"location": "Termas Geometricas, Co\u00f1aripe", "id": "540250063", "lat": "-39.6380281", "lng": "-72.3264098", "Oct-17-2020": "3"}, {"location": "En Villa 7 Lagos, Panguipulli", "id": "205952466158449", "lat": "-39.639450655", "lng": "-72.320235375", "Oct-17-2020": "3"}, {"location": "comercial socoepa Panguipulli", "id": "277760968985076", "lat": "-39.64229851", "lng": "-72.33277006", "Oct-17-2020": "3"}, {"location": "Termas Pellaifa", "id": "163372217145055", "lat": "-39.64516088", "lng": "-72.34527647", "Oct-17-2020": "2"}, {"location": "Centro de la Mujer Panguipulli", "id": "334366173367343", "lat": "null", "lng": "null", "Oct-17-2020": "1"}, {"location": "Hostal Enco", "id": "1029079025", "lat": "-39.64288664", "lng": "-72.333978125", "Oct-17-2020": "4"}, {"location": "Sabores Andinos", "id": "409850452954852", "lat": "null", "lng": "null", "Oct-17-2020": "2"}, {"location": "Food Truck Gl\u00fcck Panguipulli", "id": "102602814597773", "lat": "-39.64226", "lng": "-72.33346", "Oct-17-2020": "1"}, {"location": "Bielorrusia", "id": "1010029150", "lat": "-39.6426122496", "lng": "-72.3341192399", "Oct-17-2020": "3"}, {"location": "Huilo Huilo 23", "id": "239403329477621", "lat": "-39.6408308343", "lng": "-72.3228881491", "Oct-17-2020": "4"}, {"location": "Hospital Regional Valdivia", "id": "555675782", "lat": "-39.641932722", "lng": "-72.355402942", "Oct-17-2020": "1"}, {"location": "Inmobiliaria Altos Del Lago", "id": "556865014735007", "lat": "-39.6534823958", "lng": "-72.3416233063", "Oct-17-2020": "1"}, {"location": "Speed Restauradores", "id": "117799363342644", "lat": "-39.6428753274", "lng": "-72.336473465", "Oct-17-2020": "9"}, {"location": "Nos Gusta El T\u00e9", "id": "383053295546279", "lat": null, "lng": null, "Oct-17-2020": null}, {"location": "Rafting Panguipulli", "id": "340652146679734", "lat": "null", "lng": "null", "Oct-17-2020": "6"}, {"location": "Cooprinsem Panguipulli", "id": "1026211076", "lat": "-39.642390287", "lng": "-72.3326780438", "Oct-17-2020": "3"}, {"location": "Camino A Valdivia", "id": "1024251497", "lat": "-39.6409438", "lng": "-72.3291495", "Oct-17-2020": "3"}, {"location": "Corporaci\u00f3n Municipal de Panguipulli", "id": "1026949987", "lat": "-39.6413527425", "lng": "-72.3395942396", "Oct-17-2020": "3"}, {"location": "Petrobras Panguipulli", "id": "118560429", "lat": "-39.6430445445", "lng": "-72.3277749333", "Oct-17-2020": "3"}, {"location": "Oit Panguipulli, Destino Sietelagos", "id": "1504572033178730", "lat": "-39.6415497", "lng": "-72.333062", "Oct-17-2020": "3"}, {"location": "Quesos Chauquen", "id": "908610637", "lat": "-39.6360194", "lng": "-72.3440393", "Oct-17-2020": "2"}, {"location": "La Ribera Panguipulli / Liras\ue036", "id": "643751569355525", "lat": "-39.7174384905", "lng": "-72.3373825961", "Oct-17-2020": "4"}, {"location": "Hospedaje De Los Rios, Panguipulli", "id": "625471182", "lat": "-39.6422806976", "lng": "-72.3358672512", "Oct-17-2020": "2"}, {"location": "Rinc\u00f3n de la Bambi", "id": "1026746693", "lat": "-39.6428719", "lng": "-72.3297501", "Oct-17-2020": "3"}, {"location": "Liceo Padre Sigisfredo", "id": "31094024", "lat": "-39.641795275", "lng": "-72.33421965", "Oct-17-2020": "3"}, {"location": "Liceo Bicentenario De Excelencia Academica Altamira", "id": "234861211", "lat": "-39.635029095", "lng": "-72.3442261843", "Oct-17-2020": "3"}, {"location": "Camping Gerber", "id": "104165329754197", "lat": "-39.6800656256", "lng": "-72.3084213868", "Oct-17-2020": "3"}, {"location": "Rio Fuy Propiedades", "id": "925263797681720", "lat": "null", "lng": "null", "Oct-17-2020": "4"}, {"location": "Malchehue", "id": "682319035162185", "lat": "-39.7005361878", "lng": "-72.3549786956", "Oct-17-2020": "4"}, {"location": "Cafe Mano De Monja, Panguipulli", "id": "664167590311581", "lat": "-39.64105386", "lng": "-72.335529204", "Oct-17-2020": "3"}, {"location": "Camping y Caba\u00f1as Chauquen", "id": "1088232577892404", "lat": "-39.6815948163", "lng": "-72.3104453087", "Oct-17-2020": "1"}, {"location": "lago panguipulli...playa chauquen", "id": "1026828400", "lat": "-39.6781854", "lng": "-72.3069038", "Oct-17-2020": "3"}, {"location": "Servicio De Urgencias Hospital De Panguipulli", "id": "136080669891190", "lat": "-39.640849564", "lng": "-72.3406019687", "Oct-17-2020": "0"}, {"location": "Dulce Bocado Pasteleria", "id": "1316860874999980", "lat": "-39.63554", "lng": "-72.33041", "Oct-17-2020": "6"}, {"location": "Conservador De Bienes Ra\u00edces De Panguipulli", "id": "536111376563542", "lat": "-39.643006646", "lng": "-72.329580162", "Oct-17-2020": "0"}, {"location": "Cerveza 7lagos Panguipulli", "id": "626529040", "lat": "-39.656006647", "lng": "-72.3559505103", "Oct-17-2020": "3"}, {"location": "Foye Mapu", "id": "165183200770091", "lat": "-39.6363703", "lng": "-72.3302107", "Oct-17-2020": "4"}, {"location": "Mansion Andrade", "id": "1422956854653435", "lat": "-39.6426769", "lng": "-72.3450537", "Oct-17-2020": "3"}, {"location": "Cooprinsem Panguipulli", "id": "1018836071588379", "lat": "-39.6460994", "lng": "-72.337335", "Oct-17-2020": "0"}, {"location": "Caba\u00f1as Sof\u00eda Puerto Fuy", "id": "358535676", "lat": "-39.6425929", "lng": "-72.33424445", "Oct-17-2020": "3"}, {"location": "Eurosur Ventanas Termo acusticas", "id": "1320297904724894", "lat": "-39.63554", "lng": "-72.33041", "Oct-17-2020": "7"}, {"location": "Cl\u00ednica Dental San Clemente", "id": "907527326262048", "lat": "-39.6430042641", "lng": "-72.3305241958", "Oct-17-2020": "1"}, {"location": "Rio Fuy turismo expediciones", "id": "1030976006", "lat": null, "lng": null, "Oct-17-2020": null}, {"location": "Ra\u00edces de la Patagonia", "id": "1028557640", "lat": "-39.6405296", "lng": "-72.3230972", "Oct-17-2020": "3"}, {"location": "Playa Coz Coz", "id": "147671932437885", "lat": "-39.64041", "lng": "-72.32258", "Oct-17-2020": "3"}, {"location": "Playa Coihueco", "id": "1028554983", "lat": "-39.657921", "lng": "-72.3187394", "Oct-17-2020": "1"}, {"location": "Dieselyoyo", "id": "103706458031659", "lat": "-39.6239206423", "lng": "-72.3478460312", "Oct-17-2020": "3"}, {"location": "Haycor Turismo Rural Panguipulli", "id": "1932658323680980", "lat": "-39.6541432185", "lng": "-72.3875427246", "Oct-17-2020": "4"}, {"location": "Predio Santa Mercedes", "id": "1541280222627691", "lat": "-39.6793500893", "lng": "-72.4108842295", "Oct-17-2020": "3"}, {"location": "Escuela Mar\u00eda Alvarado", "id": "2227407307572214", "lat": "-39.64171", "lng": "-72.33075", "Oct-17-2020": "3"}, {"location": "Cl\u00ednica Dental Neuqu\u00e9n", "id": "1935983159955404", "lat": "-39.6430708", "lng": "-72.3301165", "Oct-17-2020": "0"}, {"location": "Oficina Protecci\u00f3n Civil Y Emergencias Panguipulli", "id": "1669727863105673", "lat": "-39.6422728", "lng": "-72.3258207", "Oct-17-2020": "3"}, {"location": "Con cari\u00f1o", "id": "2157214724519285", "lat": "null", "lng": "null", "Oct-17-2020": "9"}, {"location": "Fiscalia Local De Panguipulli", "id": "183661225092125", "lat": "-39.6416460606", "lng": "-72.3370729261", "Oct-17-2020": "3"}, {"location": "Co\u00f1aripe", "id": "328014108", "lat": "-39.6420515", "lng": "-72.3252542", "Oct-17-2020": "2"}, {"location": "Rucak\u00fcmeltun", "id": "1024453954", "lat": "null", "lng": "null", "Oct-17-2020": "2"}, {"location": "SAPU de PANGUIPULLI", "id": "1024546374", "lat": "-39.643486684", "lng": "-72.337074499", "Oct-17-2020": "1"}, {"location": "Southern Chile Properties", "id": "210762629013999", "lat": "null", "lng": "null", "Oct-17-2020": "1"}, {"location": "Libreria Colon", "id": "169554796502169", "lat": "-39.642074345", "lng": "-72.329281407", "Oct-17-2020": "2"}, {"location": "RAMA PANGUIPULLI", "id": "1035318638", "lat": "-39.64588", "lng": "-72.34455", "Oct-17-2020": "2"}, {"location": "Isla Panguipulli", "id": "437153896", "lat": "-39.6595857909", "lng": "-72.3057189526", "Oct-17-2020": "1"}, {"location": "New Barvera", "id": "888898999", "lat": "-39.6428309214", "lng": "-72.3234228417", "Oct-17-2020": "2"}, {"location": "Nnnnnnnnnnnnnnnnnnnnnnnnnnnnnnnnnnnnnnn", "id": "1021949063", "lat": null, "lng": null, "Oct-17-2020": null}, {"location": "Panguipulli Restorant Choperia Girasol", "id": "251099905254798", "lat": "-39.6427650251", "lng": "-72.3313006333", "Oct-17-2020": "1"}, {"location": "Comida R\u00e1pida El Competidor", "id": "827910978", "lat": "-39.6431669894", "lng": "-72.3304113104", "Oct-17-2020": "3"}, {"location": "Casino Municipal De Panguipulli", "id": "612187726", "lat": "-39.64341628", "lng": "-72.33402359", "Oct-17-2020": "2"}, {"location": "Caba\u00f1as El Casta\u00f1o de Chauqu\u00e9n", "id": "217878511881337", "lat": null, "lng": null, "Oct-17-2020": null}, {"location": "Restaurant La Escuela (People help People) Panguipulli", "id": "1033106297", "lat": "-39.642602824", "lng": "-72.332571013", "Oct-17-2020": "1"}, {"location": "En El Campo", "id": "263466023708888", "lat": "-39.6437585714", "lng": "-72.3351414286", "Oct-17-2020": "3"}, {"location": "Banco Estado Panguipulli", "id": "219160504836152", "lat": "-39.6430357904", "lng": "-72.3316750988", "Oct-17-2020": "3"}, {"location": "Restaurante Valparaiso", "id": "308292359615678", "lat": "-39.6440495", "lng": "-72.3359691", "Oct-17-2020": "2"}, {"location": "Brazas Del Volcan, Panguipulli", "id": "60164723", "lat": "-39.6421148743", "lng": "-72.3421965138", "Oct-17-2020": "2"}, {"location": "Banco Santander", "id": "272303893481931", "lat": "-39.642842281", "lng": "-72.3317956924", "Oct-17-2020": "1"}, {"location": "La Casona Renovada, Panguipulli - Chile", "id": "386148594", "lat": "-39.6443235252", "lng": "-72.3337695165", "Oct-17-2020": "2"}, {"location": "Panguipulli. Regi\u00f3n De Los R\u00edos", "id": "924021993", "lat": "-39.6283400059", "lng": "-72.3229122162", "Oct-17-2020": "2"}, {"location": "Caba\u00f1as Antares, Panguipulli, Regi\u00f3n De Los Rios", "id": "314943485226388", "lat": "-39.6410839663", "lng": "-72.3261578135", "Oct-17-2020": "1"}, {"location": "NeuralVida - Terapia Neural", "id": "270288160144748", "lat": "-39.644722", "lng": "-72.3341358", "Oct-17-2020": "2"}, {"location": "Hotel Restaurante Escuela People help people Panguipulli", "id": "275359512", "lat": "-39.642607334", "lng": "-72.332555272", "Oct-17-2020": "2"}, {"location": "Panguipulli Lago De La Luna", "id": "949105304", "lat": "-39.6399098082", "lng": "-72.3398951022", "Oct-17-2020": "2"}, {"location": "Casa Nano", "id": "261186650654324", "lat": "-39.64417988", "lng": "-72.33118486", "Oct-17-2020": "2"}, {"location": "Cuartel Primera Compa\u00f1\u00eda Bomberos", "id": "331196913606810", "lat": "-39.6443", "lng": "-72.334005", "Oct-17-2020": "2"}, {"location": "Casa Fern\u00e1ndez - Flandez", "id": "337203719747091", "lat": "-39.6397476", "lng": "-72.3201842", "Oct-17-2020": "2"}, {"location": "En El sur De chile", "id": "325838684559237", "lat": "-39.6438117", "lng": "-72.3342872", "Oct-17-2020": "1"}, {"location": "Isla Chauquen", "id": "1025952687", "lat": "-39.68369099", "lng": "-72.30143818", "Oct-17-2020": "2"}, {"location": "Spacio 1", "id": "832154716", "lat": "-39.643048996", "lng": "-72.32774366", "Oct-17-2020": "2"}, {"location": "Thecitylounge", "id": "643174137", "lat": "-39.6363762813", "lng": "-72.3187138048", "Oct-17-2020": "2"}, {"location": "Restaurant y Bar El Mirador - Panguipulli / Chile", "id": "576190478", "lat": "-39.642906537", "lng": "-72.340372684", "Oct-17-2020": "2"}, {"location": "Mermeladas Landy", "id": "257798724959475", "lat": "-39.642944", "lng": "-72.3294131", "Oct-17-2020": "3"}, {"location": "Restaurant La Casona Renovada", "id": "449576339", "lat": "-39.6440665025", "lng": "-72.333899975", "Oct-17-2020": "2"}, {"location": "Caba\u00f1as Villa Las Encinas, Panguipulli", "id": "1027918960", "lat": "-39.6392667411", "lng": "-72.3253069789", "Oct-17-2020": "2"}, {"location": "Universidad Santo Tom\u00e1s, Valdivia", "id": "270822616304942", "lat": "-39.6472066641", "lng": "-72.3320639133", "Oct-17-2020": "2"}, {"location": "Pronto Copec Panguipulli", "id": "332886220083163", "lat": "-39.642190908", "lng": "-72.3326877515", "Oct-17-2020": "2"}, {"location": "Starken Panguipulli", "id": "244799506236906", "lat": "-39.643669", "lng": "-72.33459", "Oct-17-2020": "0"}, {"location": "Caba\u00f1as Viejo Robles", "id": "371381256917506", "lat": "-39.65281", "lng": "-72.32213", "Oct-17-2020": "3"}, {"location": "Club Nautico Panguipulli", "id": "1012604396", "lat": "-39.6447411", "lng": "-72.3265686", "Oct-17-2020": "2"}, {"location": "En La Costanera Lago Panguipulli", "id": "803672283032925", "lat": "-39.6432850494", "lng": "-72.3264661431", "Oct-17-2020": "2"}, {"location": "La Ensenada.", "id": "552978808", "lat": "-39.6433701616", "lng": "-72.3303942559", "Oct-17-2020": "2"}, {"location": "Planta de Revision tecnica panguipulli", "id": "321486475103702", "lat": "-39.6583386", "lng": "-72.3548116", "Oct-17-2020": "2"}, {"location": "Gym Integral Camuso", "id": "286778908593650", "lat": "null", "lng": "null", "Oct-17-2020": "2"}, {"location": "Caba\u00f1as Pirihueico", "id": "1035034886", "lat": "-39.63978", "lng": "-72.32119", "Oct-17-2020": "3"}, {"location": "Material Did\u00e1ctico Il Bambino Panguipulli", "id": "461727157581879", "lat": "-39.643669", "lng": "-72.33459", "Oct-17-2020": "3"}, {"location": "Sector De Los 7 Lagos", "id": "627082178", "lat": "-39.6453359467", "lng": "-72.3430210724", "Oct-17-2020": "3"}, {"location": "El no te pases", "id": "227689164649148", "lat": "-39.6495496", "lng": "-72.3408839", "Oct-17-2020": "2"}, {"location": "Restaurant Borde Lago", "id": "623468300", "lat": "-39.64367243", "lng": "-72.3271626", "Oct-17-2020": "2"}, {"location": "Puente Huellahue, Panguipulli", "id": "545464005561481", "lat": "-39.642190908", "lng": "-72.3326877515", "Oct-17-2020": "2"}, {"location": "En La Casita", "id": "1030584740", "lat": "-39.6494164167", "lng": "-72.3426911333", "Oct-17-2020": "2"}, {"location": "Poblaci\u00f3n Lolquellen", "id": "554082304922865", "lat": "-39.64303475", "lng": "-72.3448739", "Oct-17-2020": "2"}, {"location": "Club Amancay", "id": "436920800103126", "lat": "-39.643669", "lng": "-72.33459", "Oct-17-2020": "0"}, {"location": "Lomas De Palguin, Panguipulli", "id": "420197754759415", "lat": "-39.6418226694", "lng": "-72.3466080718", "Oct-17-2020": "0"}, {"location": "\u00c1UREA Dermoest\u00e9tica", "id": "514025345698262", "lat": "-39.644722", "lng": "-72.3341358", "Oct-17-2020": "2"}, {"location": "Huerquehue", "id": "532355590542564", "lat": "-39.6275472455", "lng": "-72.4280736689", "Oct-17-2020": "2"}, {"location": "Liceo Fernando Santiv\u00e1n", "id": "993397927", "lat": "-39.6397376759", "lng": "-72.3275289685", "Oct-17-2020": "2"}, {"location": "Lago Azul", "id": "711771575575148", "lat": "-39.6409699", "lng": "-72.3290207", "Oct-17-2020": "3"}, {"location": "Casa Dureu-Gajardo", "id": "89581690", "lat": "-39.6453619308", "lng": "-72.3353480414", "Oct-17-2020": "2"}, {"location": "Playa Puyumen", "id": "1024002812", "lat": "-39.679955", "lng": "-72.2800062", "Oct-17-2020": "2"}, {"location": "Clinica Pulmahue", "id": "1018434360", "lat": "-39.6429195624", "lng": "-72.3304777479", "Oct-17-2020": "2"}, {"location": "Caba\u00f1as Bella Vista , Panguipulli .", "id": "580942425429088", "lat": "-39.64226", "lng": "-72.33346", "Oct-17-2020": "3"}, {"location": "Pensi\u00f3n Hospedaje Peumayen", "id": "565589690549709", "lat": "-39.6454799511", "lng": "-72.335538454", "Oct-17-2020": "1"}, {"location": "Sushi Bar Karaoke en Panguipulli", "id": "1027809409", "lat": "-39.6404114", "lng": "-72.3225784", "Oct-17-2020": "1"}, {"location": "Rotiser\u00eda y Panaderia Dany", "id": "100211768324267", "lat": "-39.6406315", "lng": "-72.322289", "Oct-17-2020": "0"}, {"location": "Vacaciones en Pucura", "id": "423677948042633", "lat": "null", "lng": "null", "Oct-17-2020": "3"}, {"location": "Caba\u00f1as Rivoli", "id": "800004003359441", "lat": "-39.6409198785", "lng": "-72.3272306395", "Oct-17-2020": "0"}, {"location": "Tienda Arco\u00edris Gardenia Reyes Gallardo", "id": "1020791473", "lat": "-39.6434877", "lng": "-72.3281687", "Oct-17-2020": "2"}, {"location": "Caba\u00f1as Panguipulli", "id": "102227751298762", "lat": null, "lng": null, "Oct-17-2020": null}, {"location": "Parque Ecuestre Kawelmapu", "id": "704432036346919", "lat": "-39.6481085", "lng": "-72.3616036", "Oct-17-2020": "2"}, {"location": "Feria Campesina Prodesal", "id": "806072729420526", "lat": "-39.6334569674", "lng": "-72.3465142805", "Oct-17-2020": "2"}, {"location": "Amigos de Panguipulli - Casona Cultural", "id": "592303894495736", "lat": "-39.6412560367", "lng": "-72.3351430893", "Oct-17-2020": "2"}, {"location": "Patagonianatural", "id": "153178858790431", "lat": "-39.63554", "lng": "-72.33041", "Oct-17-2020": "3"}, {"location": "Centro Tur\u00edstico Los Robles", "id": "763746383795209", "lat": "-39.6303962176", "lng": "-72.3227368047", "Oct-17-2020": "1"}, {"location": "Escuela Especial De Lenguaje Rayito De Luz.", "id": "112420697109430", "lat": "-39.64661", "lng": "-72.33255", "Oct-17-2020": "2"}, {"location": "Espacio We\u00f1ilafken Panguipulli.", "id": "934852686903419", "lat": "-39.6440605667", "lng": "-72.3329610833", "Oct-17-2020": "4"}, {"location": "Calafquen", "id": "373355599885444", "lat": "-39.64226", "lng": "-72.33346", "Oct-17-2020": "10"}, {"location": "Casa Panguipulli", "id": "598405901", "lat": "-39.6420269602", "lng": "-72.3370058835", "Oct-17-2020": "2"}, {"location": "Colegio Altamira", "id": "1034084499", "lat": "-39.6345193159", "lng": "-72.3442725716", "Oct-17-2020": "3"}, {"location": "Mosaicos Panguipulli", "id": "539212822857945", "lat": "-39.63554", "lng": "-72.33041", "Oct-17-2020": "1"}, {"location": "Mi Casa En Pangui", "id": "921490731198065", "lat": "-39.6439321594", "lng": "-72.3297692498", "Oct-17-2020": "2"}, {"location": "Hospedaje Arte y Raul\u00ed", "id": "1128871993890693", "lat": null, "lng": null, "Oct-17-2020": null}, {"location": "Cancha Sintetica Panguipulli", "id": "888071691203754", "lat": "-39.6418663733", "lng": "-72.347169444", "Oct-17-2020": "2"}, {"location": "Caba\u00f1as rincon del lago", "id": "1151521744863342", "lat": "-39.6422615", "lng": "-72.3334579", "Oct-17-2020": "1"}, {"location": "Mundo Teens", "id": "904806266528491", "lat": "null", "lng": "null", "Oct-17-2020": "2"}, {"location": "Toto Sandwich", "id": "475915742936002", "lat": "null", "lng": "null", "Oct-17-2020": "0"}, {"location": "Hospital Regional De Valdivia", "id": "814043911984755", "lat": "-39.627562", "lng": "-72.348074", "Oct-17-2020": "1"}, {"location": "Restaurante El Competidor", "id": "1404978232927374", "lat": "-39.643224912", "lng": "-72.3304218013", "Oct-17-2020": "2"}, {"location": "What that food", "id": "100198068062331", "lat": "-39.638856", "lng": "-72.329973", "Oct-17-2020": "2"}, {"location": "The City", "id": "674749532941953", "lat": "-39.6362883731", "lng": "-72.318697802", "Oct-17-2020": "2"}, {"location": "Hotel Escuela Panguipulli", "id": "1016897066", "lat": "-39.6424977032", "lng": "-72.3325642644", "Oct-17-2020": "2"}, {"location": "\u00d1e\u00f1is House", "id": "1021888206", "lat": "-39.644837", "lng": "-72.332843", "Oct-17-2020": "2"}, {"location": "Los Jazmines (villa Los Jardines)", "id": "1027055339", "lat": "-39.6395231401", "lng": "-72.3232754434", "Oct-17-2020": "1"}, {"location": "Chillkatuwe Ruka", "id": "1481625655500442", "lat": "-39.6333", "lng": "-72.3333", "Oct-17-2020": "1"}, {"location": "Caba\u00f1as El Hualle - Panguipulli", "id": "2206713102900293", "lat": "-39.68925", "lng": "-72.38264", "Oct-17-2020": "2"}, {"location": "Wasabi sushi delivery", "id": "1739756529637646", "lat": "-39.637547", "lng": "-72.33182", "Oct-17-2020": "3"}, {"location": "Caba\u00f1as En Panguipulli", "id": "1365284780266723", "lat": "-39.6410577537", "lng": "-72.3328256607", "Oct-17-2020": "2"}, {"location": "Hospital Panguipulli", "id": "1980780152016922", "lat": "-39.6406432312", "lng": "-72.3425942532", "Oct-17-2020": "4"}, {"location": "Casa Fer", "id": "581525738", "lat": "-39.6431081467", "lng": "-72.3277479889", "Oct-17-2020": "2"}, {"location": "Helader\u00eda Murta", "id": "161665741288122", "lat": "-39.64293873", "lng": "-72.33041671", "Oct-17-2020": "1"}, {"location": "Caba\u00f1as Tio Carlos - Panguipulli", "id": "1026380790", "lat": "-39.6411475", "lng": "-72.3269383", "Oct-17-2020": "2"}, {"location": "Cafeteria Y Chocolateria Expo", "id": "296106156", "lat": "-39.6426141685", "lng": "-72.3295920054", "Oct-17-2020": "2"}, {"location": "Parroquia San Sebasti\u00e1n", "id": "2380671538883246", "lat": "-39.6416619703", "lng": "-72.3339990442", "Oct-17-2020": "3"}, {"location": "Caba\u00f1a Panguipulli Playa Chauqu\u00e9n", "id": "107492477515887", "lat": "-39.64226", "lng": "-72.33346", "Oct-17-2020": "2"}, {"location": "Wampo, Kayak and Adventure", "id": "1032551570", "lat": "-39.6333", "lng": "-72.3333", "Oct-17-2020": "2"}, {"location": "Fuy Aventura", "id": "763134720506017", "lat": "-39.64016", "lng": "-72.32155", "Oct-17-2020": "2"}, {"location": "Le Streghe Pizza", "id": "1436994833201123", "lat": "-39.6801086", "lng": "-72.30871144", "Oct-17-2020": "2"}, {"location": "Plaza Ohiggins Panguipulli", "id": "1818248868476463", "lat": "-39.6411323547", "lng": "-72.3325576782", "Oct-17-2020": "2"}, {"location": "Puerto Fuy", "id": "156060657916969", "lat": "-39.652074279", "lng": "-72.3230294653", "Oct-17-2020": "1"}, {"location": "Registro Civil Panguipulli", "id": "1423057261264378", "lat": "-39.64305", "lng": "-72.332497", "Oct-17-2020": "1"}, {"location": "Fiesta Costumbrista De Panguipulli", "id": "1734216346907422", "lat": "-39.641188", "lng": "-72.3371716", "Oct-17-2020": "2"}, {"location": "Centro Termal Armada Liqui\u00f1e", "id": "2012142832374808", "lat": "-39.643669", "lng": "-72.33459", "Oct-17-2020": "1"}, {"location": "Sushishop", "id": "112014723498991", "lat": null, "lng": null, "Oct-17-2020": null}, {"location": "En Casa Panguipulli Alto", "id": "540281347", "lat": "-39.6451099", "lng": "-72.33016893", "Oct-17-2020": "2"}, {"location": "Tierra Chak\u00ed el viaje", "id": "1822178014778692", "lat": "null", "lng": "null", "Oct-17-2020": "2"}, {"location": "La galletita de Jimin", "id": "2056460334395654", "lat": "null", "lng": "null", "Oct-17-2020": "2"}, {"location": "Circo Hermanos Neira", "id": "1859914000958519", "lat": "-39.6434599", "lng": "-72.3262346", "Oct-17-2020": "2"}, {"location": "Vivir al sur de Chile", "id": "1202646643219553", "lat": "null", "lng": "null", "Oct-17-2020": "2"}, {"location": "Taller de lutheria Esteban Vera", "id": "177738076212747", "lat": "-39.63554", "lng": "-72.33041", "Oct-17-2020": "5"}, {"location": "Caba\u00f1as Don Anibal, Puerto Fuy", "id": "1030137598", "lat": "-39.6333", "lng": "-72.3333", "Oct-17-2020": "2"},